[
  {
    "nr": "737PMD",
    "lat": "52.97503781",
    "lng": "6.56831577",
    "vulgraad": 34,
    "adres": "Hendrik van Boeijenlaan",
    "fractieKleur": "ORANGE",
    "heeftSensor": true,
    "fractie": "PMD"
  },
  {
    "nr": "728PMD",
    "lat": "52.99622013",
    "lng": "6.56932551",
    "vulgraad": 8,
    "adres": "Abel Tasmanplein 127, 9401AZ Assen",
    "fractieKleur": "ORANGE",
    "heeftSensor": true,
    "fractie": "PMD"
  },
  {
    "nr": "734PMD",
    "lat": "52.99902566",
    "lng": "6.5600726",
    "vulgraad": 13,
    "adres": "Bernardstraat",
    "fractieKleur": "ORANGE",
    "heeftSensor": true,
    "fractie": "PMD"
  },
  {
    "nr": "733PMD",
    "lat": "52.98758839",
    "lng": "6.57777471",
    "vulgraad": 60,
    "adres": "Brunelstraat",
    "fractieKleur": "ORANGE",
    "heeftSensor": true,
    "fractie": "PMD"
  },
  {
    "nr": "751PMD",
    "lat": "53.00325954",
    "lng": "6.56002355",
    "vulgraad": 24,
    "adres": "C van der Lindenstr  151 ",
    "fractieKleur": "ORANGE",
    "heeftSensor": true,
    "fractie": "PMD"
  },
  {
    "nr": "702PMD",
    "lat": "53.0015583",
    "lng": "6.52554029",
    "vulgraad": 0,
    "adres": "De Hoogspanning",
    "fractieKleur": "ORANGE",
    "heeftSensor": true,
    "fractie": "PMD"
  },
  {
    "nr": "735PMD",
    "lat": "52.98770282",
    "lng": "6.53692688",
    "vulgraad": 11,
    "adres": "Nicolaas Beetslaan",
    "fractieKleur": "ORANGE",
    "heeftSensor": true,
    "fractie": "PMD"
  },
  {
    "nr": "705PMD",
    "lat": "52.9984376",
    "lng": "6.56893456",
    "vulgraad": 31,
    "adres": "Nijlandstraat 305",
    "fractieKleur": "ORANGE",
    "heeftSensor": true,
    "fractie": "PMD"
  },
  {
    "nr": "700PMD",
    "lat": "53.0001736",
    "lng": "6.54891172",
    "vulgraad": 0,
    "adres": "Nobellaan",
    "fractieKleur": "ORANGE",
    "heeftSensor": true,
    "fractie": "PMD"
  },
  {
    "nr": "706PMD",
    "lat": "52.99660456",
    "lng": "6.56727843",
    "vulgraad": 13,
    "adres": "Jan Fabriciusstraat  306",
    "fractieKleur": "ORANGE",
    "heeftSensor": true,
    "fractie": "PMD"
  },
  {
    "nr": "703PMD",
    "lat": "52.99582025",
    "lng": "6.55796751",
    "vulgraad": 5,
    "adres": "Mercuriusplein 212",
    "fractieKleur": "ORANGE",
    "heeftSensor": true,
    "fractie": "PMD"
  },
  {
    "nr": "738PMD",
    "lat": "52.993087",
    "lng": "6.57394054",
    "vulgraad": 44,
    "adres": "Buizerdstraat  138",
    "fractieKleur": "ORANGE",
    "heeftSensor": true,
    "fractie": "PMD"
  },
  {
    "nr": "707PMD",
    "lat": "52.99834134",
    "lng": "6.55466553",
    "vulgraad": 45,
    "adres": "Nansenstraat 33D, 9402AJ Assen",
    "fractieKleur": "ORANGE",
    "heeftSensor": true,
    "fractie": "PMD"
  },
  {
    "nr": "742PMD",
    "lat": "53.01095994",
    "lng": "6.56613962",
    "vulgraad": 7,
    "adres": "Smetanalaan 142 ",
    "fractieKleur": "ORANGE",
    "heeftSensor": true,
    "fractie": "PMD"
  },
  {
    "nr": "743PMD",
    "lat": "53.0111542",
    "lng": "6.56480185",
    "vulgraad": 8,
    "adres": "Smetanalaan 143 ",
    "fractieKleur": "ORANGE",
    "heeftSensor": true,
    "fractie": "PMD"
  },
  {
    "nr": "744PMD",
    "lat": "53.01135598",
    "lng": "6.56346857",
    "vulgraad": 6,
    "adres": "Smetanalaan 144 ",
    "fractieKleur": "ORANGE",
    "heeftSensor": true,
    "fractie": "PMD"
  },
  {
    "nr": "257BIO",
    "lat": "53.01247858",
    "lng": "6.59015227",
    "vulgraad": 0,
    "adres": "Stoepveldsingel  257",
    "fractieKleur": "GREEN",
    "heeftSensor": true,
    "fractie": "GFT"
  },
  {
    "nr": "190BIO",
    "lat": "52.99769039",
    "lng": "6.53909507",
    "vulgraad": 0,
    "adres": "Stroom 190",
    "fractieKleur": "GREEN",
    "heeftSensor": true,
    "fractie": "GFT"
  },
  {
    "nr": "280BIO",
    "lat": "52.99981541",
    "lng": "6.55192775",
    "vulgraad": 0,
    "adres": "Thorbeckelaan   280",
    "fractieKleur": "GREEN",
    "heeftSensor": true,
    "fractie": "GFT"
  },
  {
    "nr": "153BIO",
    "lat": "53.00045205",
    "lng": "6.55284965",
    "vulgraad": 0,
    "adres": "Thorbeckelaan  153",
    "fractieKleur": "GREEN",
    "heeftSensor": true,
    "fractie": "GFT"
  },
  {
    "nr": "154BIO",
    "lat": "53.00010703",
    "lng": "6.55196996",
    "vulgraad": 0,
    "adres": "Thorbeckelaan  154",
    "fractieKleur": "GREEN",
    "heeftSensor": true,
    "fractie": "Groente, Fruit en Tuinafval"
  },
  {
    "nr": "155BIO",
    "lat": "53.00007781",
    "lng": "6.55263574",
    "vulgraad": 0,
    "adres": "Thorbeckelaan  155",
    "fractieKleur": "GREEN",
    "heeftSensor": true,
    "fractie": "Groente, Fruit en Tuinafval"
  },
  {
    "nr": "244BIO",
    "lat": "52.99659477",
    "lng": "6.51211909",
    "vulgraad": 0,
    "adres": "Tjalk  244",
    "fractieKleur": "GREEN",
    "heeftSensor": true,
    "fractie": "Groente, Fruit en Tuinafval"
  },
  {
    "nr": "296BIO",
    "lat": "52.99914893",
    "lng": "6.51353481",
    "vulgraad": 0,
    "adres": "Zuidergracht  296",
    "fractieKleur": "GREEN",
    "heeftSensor": true,
    "fractie": "Groente, Fruit en Tuinafval"
  },
  {
    "nr": "207BIO",
    "lat": "52.99127268",
    "lng": "6.56586369",
    "vulgraad": 0,
    "adres": "Zuidhaege  207",
    "fractieKleur": "GREEN",
    "heeftSensor": true,
    "fractie": "Groente, Fruit en Tuinafval"
  },
  {
    "nr": "500BIO",
    "lat": "52.99101584",
    "lng": "6.5653234",
    "vulgraad": 0,
    "adres": "Zuidhaege 122, 9401XT Assen",
    "fractieKleur": "GREEN",
    "heeftSensor": true,
    "fractie": "Groente, Fruit en Tuinafval"
  },
  {
    "nr": "498BIO",
    "lat": "52.99067598",
    "lng": "6.566075",
    "vulgraad": 0,
    "adres": "Zuidhaege 46, 9401XS Assen",
    "fractieKleur": "GREEN",
    "heeftSensor": true,
    "fractie": "Groente, Fruit en Tuinafval"
  },
  {
    "nr": "499BIO",
    "lat": "52.99109576",
    "lng": "6.56550787",
    "vulgraad": 0,
    "adres": "Zuidhaege 28, 9401NZ Assen",
    "fractieKleur": "GREEN",
    "heeftSensor": true,
    "fractie": "Groente, Fruit en Tuinafval"
  },
  {
    "nr": "315BIO",
    "lat": "53.01566728",
    "lng": "6.56422842",
    "vulgraad": 0,
    "adres": "Zuringes 315",
    "fractieKleur": "GREEN",
    "heeftSensor": true,
    "fractie": "Groente, Fruit en Tuinafval"
  },
  {
    "nr": "237BIO",
    "lat": "53.00658749",
    "lng": "6.55943424",
    "vulgraad": 0,
    "adres": "Zwartwatersweg   237",
    "fractieKleur": "GREEN",
    "heeftSensor": true,
    "fractie": "Groente, Fruit en Tuinafval"
  },
  {
    "nr": "191BIO",
    "lat": "52.99672659",
    "lng": "6.53899537",
    "vulgraad": 0,
    "adres": "Zwin  191",
    "fractieKleur": "GREEN",
    "heeftSensor": true,
    "fractie": "Groente, Fruit en Tuinafval"
  },
  {
    "nr": "701PMD",
    "lat": "53.01604431",
    "lng": "6.56108572",
    "vulgraad": 13,
    "adres": "Esakkersweg",
    "fractieKleur": "ORANGE",
    "heeftSensor": true,
    "fractie": "PMD"
  },
  {
    "nr": "105BIO",
    "lat": "53.016106",
    "lng": "6.562003",
    "vulgraad": 0,
    "adres": "Winkelakker 105",
    "fractieKleur": "GREEN",
    "heeftSensor": true,
    "fractie": "Groente, Fruit en Tuinafval"
  },
  {
    "nr": "115BIO",
    "lat": "52.98486591",
    "lng": "6.5798311",
    "vulgraad": 0,
    "adres": "Zilverschoonstraat 115",
    "fractieKleur": "GREEN",
    "heeftSensor": true,
    "fractie": "Groente, Fruit en Tuinafval"
  },
  {
    "nr": "116BIO",
    "lat": "52.98529471",
    "lng": "6.57882137",
    "vulgraad": 0,
    "adres": "Zilverschoonstraat 116",
    "fractieKleur": "GREEN",
    "heeftSensor": true,
    "fractie": "Groente, Fruit en Tuinafval"
  },
  {
    "nr": "117BIO",
    "lat": "52.98530365",
    "lng": "6.5787781",
    "vulgraad": 0,
    "adres": "Zilverschoonstraat 117",
    "fractieKleur": "GREEN",
    "heeftSensor": true,
    "fractie": "Groente, Fruit en Tuinafval"
  },
  {
    "nr": "118BIO",
    "lat": "52.98585742",
    "lng": "6.57776535",
    "vulgraad": 0,
    "adres": "Zilverschoonstraat 118",
    "fractieKleur": "GREEN",
    "heeftSensor": true,
    "fractie": "Groente, Fruit en Tuinafval"
  },
  {
    "nr": "347BIO",
    "lat": "53.00268892",
    "lng": "6.5316081",
    "vulgraad": 0,
    "adres": "Mien Ruysweg 36, 9408KB Assen",
    "fractieKleur": "GREEN",
    "heeftSensor": true,
    "fractie": "Groente, Fruit en Tuinafval"
  },
  {
    "nr": "142BIO",
    "lat": "53.01095994",
    "lng": "6.56613962",
    "vulgraad": 0,
    "adres": "Smetanalaan 142 ",
    "fractieKleur": "GREEN",
    "heeftSensor": true,
    "fractie": "Groente, Fruit en Tuinafval"
  },
  {
    "nr": "112BIO",
    "lat": "52.98587947",
    "lng": "6.58219512",
    "vulgraad": 0,
    "adres": "Speenkruidstraat 161, 9404HG Assen",
    "fractieKleur": "GREEN",
    "heeftSensor": true,
    "fractie": "Groente, Fruit en Tuinafval"
  },
  {
    "nr": "113BIO",
    "lat": "52.98528229",
    "lng": "6.58115996",
    "vulgraad": 0,
    "adres": "Speenkruidstraat 46,  Assen",
    "fractieKleur": "GREEN",
    "heeftSensor": true,
    "fractie": "Groente, Fruit en Tuinafval"
  },
  {
    "nr": "114BIO",
    "lat": "52.98463495",
    "lng": "6.58014436",
    "vulgraad": 0,
    "adres": "Speenkruidstraat 353, 9404HP Assen",
    "fractieKleur": "GREEN",
    "heeftSensor": true,
    "fractie": "Groente, Fruit en Tuinafval"
  },
  {
    "nr": "135BIO",
    "lat": "52.99267952",
    "lng": "6.57706071",
    "vulgraad": 0,
    "adres": "Sperwerstraat  135",
    "fractieKleur": "GREEN",
    "heeftSensor": true,
    "fractie": "Groente, Fruit en Tuinafval"
  },
  {
    "nr": "329BIO",
    "lat": "52.99222018",
    "lng": "6.57666897",
    "vulgraad": 0,
    "adres": "Sperwerstraat 329",
    "fractieKleur": "GREEN",
    "heeftSensor": true,
    "fractie": "Groente, Fruit en Tuinafval"
  },
  {
    "nr": "177BIO",
    "lat": "53.00153642",
    "lng": "6.54840505",
    "vulgraad": 0,
    "adres": "Stadhouderslaan  177",
    "fractieKleur": "GREEN",
    "heeftSensor": true,
    "fractie": "Groente, Fruit en Tuinafval"
  },
  {
    "nr": "178BIO",
    "lat": "53.00129994",
    "lng": "6.54808241",
    "vulgraad": 0,
    "adres": "Stadhouderslaan  178",
    "fractieKleur": "GREEN",
    "heeftSensor": true,
    "fractie": "Groente, Fruit en Tuinafval"
  },
  {
    "nr": "311BIO",
    "lat": "53.00179567",
    "lng": "6.55185287",
    "vulgraad": 0,
    "adres": "Stadhouderslaan 311",
    "fractieKleur": "GREEN",
    "heeftSensor": true,
    "fractie": "Groente, Fruit en Tuinafval"
  },
  {
    "nr": "261BIO",
    "lat": "53.00478154",
    "lng": "6.5079785",
    "vulgraad": 0,
    "adres": "Stedewaarts  261",
    "fractieKleur": "GREEN",
    "heeftSensor": true,
    "fractie": "Groente, Fruit en Tuinafval"
  },
  {
    "nr": "141BIO",
    "lat": "52.99470179",
    "lng": "6.57518702",
    "vulgraad": 0,
    "adres": "Steendijk  141",
    "fractieKleur": "GREEN",
    "heeftSensor": true,
    "fractie": "Groente, Fruit en Tuinafval"
  },
  {
    "nr": "100BIO",
    "lat": "53.025587",
    "lng": "6.591153",
    "vulgraad": 0,
    "adres": "Nabij Steigermesschen  0, 9403ZS Assen",
    "fractieKleur": "GREEN",
    "heeftSensor": true,
    "fractie": "Groente, Fruit en Tuinafval"
  },
  {
    "nr": "125BIO",
    "lat": "52.98864019",
    "lng": "6.58186917",
    "vulgraad": 0,
    "adres": "Vredeveldseweg  125",
    "fractieKleur": "GREEN",
    "heeftSensor": true,
    "fractie": "Groente, Fruit en Tuinafval"
  },
  {
    "nr": "291BIO",
    "lat": "52.98885582",
    "lng": "6.58149284",
    "vulgraad": 0,
    "adres": "Vredeveldseweg  291",
    "fractieKleur": "GREEN",
    "heeftSensor": true,
    "fractie": "Groente, Fruit en Tuinafval"
  },
  {
    "nr": "106BIO",
    "lat": "53.01631268",
    "lng": "6.5594119",
    "vulgraad": 0,
    "adres": "Walakker 106",
    "fractieKleur": "GREEN",
    "heeftSensor": true,
    "fractie": "Groente, Fruit en Tuinafval"
  },
  {
    "nr": "211BIO",
    "lat": "52.99485008",
    "lng": "6.55926216",
    "vulgraad": 0,
    "adres": "Weiersstraat   211",
    "fractieKleur": "GREEN",
    "heeftSensor": true,
    "fractie": "Groente, Fruit en Tuinafval"
  },
  {
    "nr": "111BIO",
    "lat": "52.98401704",
    "lng": "6.53446125",
    "vulgraad": 0,
    "adres": "Het Sticht  111",
    "fractieKleur": "GREEN",
    "heeftSensor": true,
    "fractie": "Groente, Fruit en Tuinafval"
  },
  {
    "nr": "325BIO",
    "lat": "53.02129797",
    "lng": "6.57340679",
    "vulgraad": 0,
    "adres": "Hoekbree 325",
    "fractieKleur": "GREEN",
    "heeftSensor": true,
    "fractie": "Groente, Fruit en Tuinafval"
  },
  {
    "nr": "269BIO",
    "lat": "53.00160304",
    "lng": "6.56675293",
    "vulgraad": 0,
    "adres": "Huygenstraat  269",
    "fractieKleur": "GREEN",
    "heeftSensor": true,
    "fractie": "Groente, Fruit en Tuinafval"
  },
  {
    "nr": "270BIO",
    "lat": "53.00068836",
    "lng": "6.56689656",
    "vulgraad": 0,
    "adres": "Huygenstraat  270",
    "fractieKleur": "GREEN",
    "heeftSensor": true,
    "fractie": "Groente, Fruit en Tuinafval"
  },
  {
    "nr": "156BIO",
    "lat": "53.00107612",
    "lng": "6.55617957",
    "vulgraad": 0,
    "adres": "J.H.A. Schaperstraat  156",
    "fractieKleur": "GREEN",
    "heeftSensor": true,
    "fractie": "Groente, Fruit en Tuinafval"
  },
  {
    "nr": "226BIO",
    "lat": "52.99863378",
    "lng": "6.56698043",
    "vulgraad": 0,
    "adres": "Jan Fabriciusstraat  226",
    "fractieKleur": "GREEN",
    "heeftSensor": true,
    "fractie": "Groente, Fruit en Tuinafval"
  },
  {
    "nr": "227BIO",
    "lat": "52.99800773",
    "lng": "6.56714577",
    "vulgraad": 0,
    "adres": "Jan Fabriciusstraat  227",
    "fractieKleur": "GREEN",
    "heeftSensor": true,
    "fractie": "Groente, Fruit en Tuinafval"
  },
  {
    "nr": "306BIO",
    "lat": "52.99660456",
    "lng": "6.56727843",
    "vulgraad": 0,
    "adres": "Jan Fabriciusstraat  306",
    "fractieKleur": "GREEN",
    "heeftSensor": true,
    "fractie": "Groente, Fruit en Tuinafval"
  },
  {
    "nr": "213BIO",
    "lat": "52.99557046",
    "lng": "6.55778595",
    "vulgraad": 0,
    "adres": "Weiersstraat  213",
    "fractieKleur": "GREEN",
    "heeftSensor": true,
    "fractie": "Groente, Fruit en Tuinafval"
  },
  {
    "nr": "255BIO",
    "lat": "53.0131648",
    "lng": "6.58875668",
    "vulgraad": 0,
    "adres": "Overstoep  255",
    "fractieKleur": "GREEN",
    "heeftSensor": true,
    "fractie": "Groente, Fruit en Tuinafval"
  },
  {
    "nr": "265BIO",
    "lat": "53.01012565",
    "lng": "6.56408875",
    "vulgraad": 0,
    "adres": "Paganinilaan  265",
    "fractieKleur": "GREEN",
    "heeftSensor": true,
    "fractie": "Groente, Fruit en Tuinafval"
  },
  {
    "nr": "202BIO",
    "lat": "52.988563",
    "lng": "6.565346",
    "vulgraad": 0,
    "adres": "Parkplein  202",
    "fractieKleur": "GREEN",
    "heeftSensor": true,
    "fractie": "Groente, Fruit en Tuinafval"
  },
  {
    "nr": "253BIO",
    "lat": "52.98881047",
    "lng": "6.57448083",
    "vulgraad": 0,
    "adres": "Pelikaanstraat 253",
    "fractieKleur": "GREEN",
    "heeftSensor": true,
    "fractie": "Groente, Fruit en Tuinafval"
  },
  {
    "nr": "258BIO",
    "lat": "53.0038146",
    "lng": "6.51706394",
    "vulgraad": 0,
    "adres": "Perzikstraat  258",
    "fractieKleur": "GREEN",
    "heeftSensor": true,
    "fractie": "Groente, Fruit en Tuinafval"
  },
  {
    "nr": "259BIO",
    "lat": "53.00459621",
    "lng": "6.5154716",
    "vulgraad": 0,
    "adres": "Perzikstraat 72, 9408BS Assen",
    "fractieKleur": "GREEN",
    "heeftSensor": true,
    "fractie": "Groente, Fruit en Tuinafval"
  },
  {
    "nr": "110BIO",
    "lat": "52.99359336",
    "lng": "6.5126958",
    "vulgraad": 0,
    "adres": "Planetenlaan  110",
    "fractieKleur": "GREEN",
    "heeftSensor": true,
    "fractie": "Groente, Fruit en Tuinafval"
  },
  {
    "nr": "279BIO",
    "lat": "52.98975535",
    "lng": "6.58231262",
    "vulgraad": 0,
    "adres": "Platolaan   279",
    "fractieKleur": "GREEN",
    "heeftSensor": true,
    "fractie": "Groente, Fruit en Tuinafval"
  },
  {
    "nr": "204BIO",
    "lat": "52.99126061",
    "lng": "6.56252583",
    "vulgraad": 0,
    "adres": "Prinses Beatrixstraat",
    "fractieKleur": "GREEN",
    "heeftSensor": true,
    "fractie": "Groente, Fruit en Tuinafval"
  },
  {
    "nr": "175BIO",
    "lat": "53.00206679",
    "lng": "6.54702031",
    "vulgraad": 0,
    "adres": "Rabenhauptstraat  175",
    "fractieKleur": "GREEN",
    "heeftSensor": true,
    "fractie": "Groente, Fruit en Tuinafval"
  },
  {
    "nr": "330BIO",
    "lat": "52.99545689",
    "lng": "6.57517925",
    "vulgraad": 0,
    "adres": "Rembrandtlaan 330",
    "fractieKleur": "GREEN",
    "heeftSensor": true,
    "fractie": "Groente, Fruit en Tuinafval"
  },
  {
    "nr": "252BIO",
    "lat": "52.9899483",
    "lng": "6.57452791",
    "vulgraad": 0,
    "adres": "Resedastraat 252",
    "fractieKleur": "GREEN",
    "heeftSensor": true,
    "fractie": "Groente, Fruit en Tuinafval"
  },
  {
    "nr": "262BIO",
    "lat": "53.01051466",
    "lng": "6.54547475",
    "vulgraad": 0,
    "adres": "Rijnstraat   262",
    "fractieKleur": "GREEN",
    "heeftSensor": true,
    "fractie": "Groente, Fruit en Tuinafval"
  },
  {
    "nr": "99BIO",
    "lat": "52.9917402",
    "lng": "6.57996988",
    "vulgraad": 0,
    "adres": "Roerdompstraat 20, 9404EH Assen",
    "fractieKleur": "GREEN",
    "heeftSensor": true,
    "fractie": "Groente, Fruit en Tuinafval"
  },
  {
    "nr": "295BIO",
    "lat": "52.99968333",
    "lng": "6.51599583",
    "vulgraad": 0,
    "adres": "Traverse  295",
    "fractieKleur": "GREEN",
    "heeftSensor": true,
    "fractie": "Groente, Fruit en Tuinafval"
  },
  {
    "nr": "163BIO",
    "lat": "53.00067029",
    "lng": "6.56188733",
    "vulgraad": 0,
    "adres": "MR P J Troelstralaan  163",
    "fractieKleur": "GREEN",
    "heeftSensor": true,
    "fractie": "Groente, Fruit en Tuinafval"
  },
  {
    "nr": "250BIO",
    "lat": "52.98959093",
    "lng": "6.57724168",
    "vulgraad": 0,
    "adres": "Tuinstraat 250",
    "fractieKleur": "GREEN",
    "heeftSensor": true,
    "fractie": "Groente, Fruit en Tuinafval"
  },
  {
    "nr": "318BIO",
    "lat": "52.99277464",
    "lng": "6.55837719",
    "vulgraad": 0,
    "adres": "Ulohof 318",
    "fractieKleur": "GREEN",
    "heeftSensor": true,
    "fractie": "Groente, Fruit en Tuinafval"
  },
  {
    "nr": "274BIO",
    "lat": "52.994614",
    "lng": "6.54934044",
    "vulgraad": 0,
    "adres": "Vaart N.Z.  274",
    "fractieKleur": "GREEN",
    "heeftSensor": true,
    "fractie": "Groente, Fruit en Tuinafval"
  },
  {
    "nr": "210BIO",
    "lat": "52.99404522",
    "lng": "6.55321543",
    "vulgraad": 0,
    "adres": "Vaart NZ  210",
    "fractieKleur": "GREEN",
    "heeftSensor": true,
    "fractie": "Groente, Fruit en Tuinafval"
  },
  {
    "nr": "285BIO",
    "lat": "52.99365417",
    "lng": "6.55698378",
    "vulgraad": 0,
    "adres": "Vaart ZZ  285",
    "fractieKleur": "GREEN",
    "heeftSensor": true,
    "fractie": "Groente, Fruit en Tuinafval"
  },
  {
    "nr": "286BIO",
    "lat": "52.99371672",
    "lng": "6.5549569",
    "vulgraad": 0,
    "adres": "Vaart ZZ  286",
    "fractieKleur": "GREEN",
    "heeftSensor": true,
    "fractie": "Groente, Fruit en Tuinafval"
  },
  {
    "nr": "179BIO",
    "lat": "53.00194031",
    "lng": "6.54135629",
    "vulgraad": 0,
    "adres": "Van der Scheerstraat  179",
    "fractieKleur": "GREEN",
    "heeftSensor": true,
    "fractie": "Groente, Fruit en Tuinafval"
  },
  {
    "nr": "314BIO",
    "lat": "52.99861255",
    "lng": "6.54946687",
    "vulgraad": 0,
    "adres": "Van Heuven Goedhartlaan 314",
    "fractieKleur": "GREEN",
    "heeftSensor": true,
    "fractie": "Groente, Fruit en Tuinafval"
  },
  {
    "nr": "193BIO",
    "lat": "52.99856252",
    "lng": "6.54787468",
    "vulgraad": 0,
    "adres": "Van Heuveng \"Wijde Blik\"  193",
    "fractieKleur": "GREEN",
    "heeftSensor": true,
    "fractie": "Groente, Fruit en Tuinafval"
  },
  {
    "nr": "336BIO",
    "lat": "52.99822014",
    "lng": "6.56993358",
    "vulgraad": 0,
    "adres": "Veemarktstraat",
    "fractieKleur": "GREEN",
    "heeftSensor": true,
    "fractie": "Groente, Fruit en Tuinafval"
  },
  {
    "nr": "264BIO",
    "lat": "53.00931715",
    "lng": "6.56289735",
    "vulgraad": 0,
    "adres": "Verdistraat   264",
    "fractieKleur": "GREEN",
    "heeftSensor": true,
    "fractie": "Groente, Fruit en Tuinafval"
  },
  {
    "nr": "201BIO",
    "lat": "52.98826883",
    "lng": "6.56624395",
    "vulgraad": 0,
    "adres": "Vogelkerslaan  201",
    "fractieKleur": "GREEN",
    "heeftSensor": true,
    "fractie": "Groente, Fruit en Tuinafval"
  },
  {
    "nr": "266BIO",
    "lat": "53.00197242",
    "lng": "6.56752009",
    "vulgraad": 0,
    "adres": "Vondellaan  266",
    "fractieKleur": "GREEN",
    "heeftSensor": true,
    "fractie": "Groente, Fruit en Tuinafval"
  },
  {
    "nr": "267BIO",
    "lat": "53.00178407",
    "lng": "6.56892308",
    "vulgraad": 0,
    "adres": "Vondellaan  267",
    "fractieKleur": "GREEN",
    "heeftSensor": true,
    "fractie": "Groente, Fruit en Tuinafval"
  },
  {
    "nr": "268BIO",
    "lat": "53.0009918",
    "lng": "6.56907785",
    "vulgraad": 0,
    "adres": "Vondellaan  268",
    "fractieKleur": "GREEN",
    "heeftSensor": true,
    "fractie": "Groente, Fruit en Tuinafval"
  },
  {
    "nr": "332BIO",
    "lat": "52.98970909",
    "lng": "6.58006839",
    "vulgraad": 0,
    "adres": "Vredeveldseweg",
    "fractieKleur": "GREEN",
    "heeftSensor": true,
    "fractie": "Groente, Fruit en Tuinafval"
  },
  {
    "nr": "238BIO",
    "lat": "53.00646471",
    "lng": "6.55798263",
    "vulgraad": 0,
    "adres": "Molenstraat   238",
    "fractieKleur": "GREEN",
    "heeftSensor": true,
    "fractie": "Groente, Fruit en Tuinafval"
  },
  {
    "nr": "149BIO",
    "lat": "53.00387647",
    "lng": "6.55676198",
    "vulgraad": 0,
    "adres": "Molenstraat  149",
    "fractieKleur": "GREEN",
    "heeftSensor": true,
    "fractie": "Groente, Fruit en Tuinafval"
  },
  {
    "nr": "218BIO",
    "lat": "53.06589383",
    "lng": "6.65679784",
    "vulgraad": 0,
    "adres": "Mooi Zeegse 218",
    "fractieKleur": "GREEN",
    "heeftSensor": true,
    "fractie": "Groente, Fruit en Tuinafval"
  },
  {
    "nr": "172BIO",
    "lat": "53.00726713",
    "lng": "6.55012754",
    "vulgraad": 0,
    "adres": "MR GR. v Prinsterln  172",
    "fractieKleur": "GREEN",
    "heeftSensor": true,
    "fractie": "Groente, Fruit en Tuinafval"
  },
  {
    "nr": "162BIO",
    "lat": "53.00071645",
    "lng": "6.56112241",
    "vulgraad": 0,
    "adres": "Mr. P.J. Troelstralaan 38, 9402BJ Assen",
    "fractieKleur": "GREEN",
    "heeftSensor": true,
    "fractie": "Groente, Fruit en Tuinafval"
  },
  {
    "nr": "164BIO",
    "lat": "53.00071306",
    "lng": "6.56364982",
    "vulgraad": 0,
    "adres": "MR P J Troelstralaan  164",
    "fractieKleur": "GREEN",
    "heeftSensor": true,
    "fractie": "Groente, Fruit en Tuinafval"
  },
  {
    "nr": "167BIO",
    "lat": "52.99873607",
    "lng": "6.55424511",
    "vulgraad": 0,
    "adres": "MR P J Troelstralaan  167",
    "fractieKleur": "GREEN",
    "heeftSensor": true,
    "fractie": "Groente, Fruit en Tuinafval"
  },
  {
    "nr": "196BIO",
    "lat": "52.99773233",
    "lng": "6.55368807",
    "vulgraad": 0,
    "adres": "Nobellaan 43, 9406AA Assen",
    "fractieKleur": "GREEN",
    "heeftSensor": true,
    "fractie": "Groente, Fruit en Tuinafval"
  },
  {
    "nr": "199BIO",
    "lat": "52.99697262",
    "lng": "6.55245645",
    "vulgraad": 0,
    "adres": "Mr. P.J. Troelstralaan 199, 9402BG Assen",
    "fractieKleur": "GREEN",
    "heeftSensor": true,
    "fractie": "Groente, Fruit en Tuinafval"
  },
  {
    "nr": "163ABIO",
    "lat": "53.00098881",
    "lng": "6.56236719",
    "vulgraad": 0,
    "adres": "Mr P J Troelstraln 163 A",
    "fractieKleur": "GREEN",
    "heeftSensor": true,
    "fractie": "Groente, Fruit en Tuinafval"
  },
  {
    "nr": "282BIO",
    "lat": "52.99836847",
    "lng": "6.5535411",
    "vulgraad": 0,
    "adres": "Mr. P.J. Troelstralaan 144, 9402BM Assen",
    "fractieKleur": "GREEN",
    "heeftSensor": true,
    "fractie": "Groente, Fruit en Tuinafval"
  },
  {
    "nr": "168BIO",
    "lat": "52.99834134",
    "lng": "6.55466553",
    "vulgraad": 0,
    "adres": "Nansenstraat 33D, 9402AJ Assen",
    "fractieKleur": "GREEN",
    "heeftSensor": true,
    "fractie": "Groente, Fruit en Tuinafval"
  },
  {
    "nr": "335BIO",
    "lat": "52.98770282",
    "lng": "6.53692688",
    "vulgraad": 0,
    "adres": "Nicolaas Beetslaan",
    "fractieKleur": "GREEN",
    "heeftSensor": true,
    "fractie": "Groente, Fruit en Tuinafval"
  },
  {
    "nr": "107BIO",
    "lat": "53.01671404",
    "lng": "6.5602635",
    "vulgraad": 0,
    "adres": "Scharmbarg  107",
    "fractieKleur": "GREEN",
    "heeftSensor": true,
    "fractie": "Groente, Fruit en Tuinafval"
  },
  {
    "nr": "104BIO",
    "lat": "53.01675718",
    "lng": "6.58498036",
    "vulgraad": 0,
    "adres": "Schepelgoorn 104",
    "fractieKleur": "GREEN",
    "heeftSensor": true,
    "fractie": "Groente, Fruit en Tuinafval"
  },
  {
    "nr": "293BIO",
    "lat": "53.00122941",
    "lng": "6.51391385",
    "vulgraad": 0,
    "adres": "Schoolstraat  293",
    "fractieKleur": "GREEN",
    "heeftSensor": true,
    "fractie": "Groente, Fruit en Tuinafval"
  },
  {
    "nr": "171BIO",
    "lat": "53.00687502",
    "lng": "6.5516416",
    "vulgraad": 0,
    "adres": "Schultestraat   171",
    "fractieKleur": "GREEN",
    "heeftSensor": true,
    "fractie": "Groente, Fruit en Tuinafval"
  },
  {
    "nr": "170BIO",
    "lat": "53.00773453",
    "lng": "6.55247747",
    "vulgraad": 0,
    "adres": "Schultestraat  170",
    "fractieKleur": "GREEN",
    "heeftSensor": true,
    "fractie": "Groente, Fruit en Tuinafval"
  },
  {
    "nr": "126BIO",
    "lat": "52.98800795",
    "lng": "6.58217552",
    "vulgraad": 0,
    "adres": "Sleutelbloemstraat  126",
    "fractieKleur": "GREEN",
    "heeftSensor": true,
    "fractie": "Groente, Fruit en Tuinafval"
  },
  {
    "nr": "200BIO",
    "lat": "52.99502322",
    "lng": "6.55118807",
    "vulgraad": 0,
    "adres": "Sluisstraat  200",
    "fractieKleur": "GREEN",
    "heeftSensor": true,
    "fractie": "Groente, Fruit en Tuinafval"
  },
  {
    "nr": "143BIO",
    "lat": "53.0111542",
    "lng": "6.56480185",
    "vulgraad": 0,
    "adres": "Smetanalaan 143 ",
    "fractieKleur": "GREEN",
    "heeftSensor": true,
    "fractie": "Groente, Fruit en Tuinafval"
  },
  {
    "nr": "304BIO",
    "lat": "53.01173312",
    "lng": "6.56272399",
    "vulgraad": 0,
    "adres": "Smetanalaan 304",
    "fractieKleur": "GREEN",
    "heeftSensor": true,
    "fractie": "Groente, Fruit en Tuinafval"
  },
  {
    "nr": "144BIO",
    "lat": "53.01135598",
    "lng": "6.56346857",
    "vulgraad": 0,
    "adres": "Smetanalaan 144 ",
    "fractieKleur": "GREEN",
    "heeftSensor": true,
    "fractie": "Groente, Fruit en Tuinafval"
  },
  {
    "nr": "132BIO",
    "lat": "52.99091023",
    "lng": "6.57128801",
    "vulgraad": 0,
    "adres": "Oosterparallelweg  132",
    "fractieKleur": "GREEN",
    "heeftSensor": true,
    "fractie": "Groente, Fruit en Tuinafval"
  },
  {
    "nr": "136BIO",
    "lat": "52.9930882",
    "lng": "6.57572401",
    "vulgraad": 0,
    "adres": "Oosterpark  136",
    "fractieKleur": "GREEN",
    "heeftSensor": true,
    "fractie": "Groente, Fruit en Tuinafval"
  },
  {
    "nr": "137BIO",
    "lat": "52.99354782",
    "lng": "6.57432555",
    "vulgraad": 0,
    "adres": "Oosterpark  137",
    "fractieKleur": "GREEN",
    "heeftSensor": true,
    "fractie": "Groente, Fruit en Tuinafval"
  },
  {
    "nr": "139BIO",
    "lat": "52.9925387",
    "lng": "6.57545556",
    "vulgraad": 0,
    "adres": "Oosterpark  139",
    "fractieKleur": "GREEN",
    "heeftSensor": true,
    "fractie": "Groente, Fruit en Tuinafval"
  },
  {
    "nr": "233BIO",
    "lat": "52.99428599",
    "lng": "6.56681791",
    "vulgraad": 0,
    "adres": "Oranjestraat 233",
    "fractieKleur": "GREEN",
    "heeftSensor": true,
    "fractie": "Groente, Fruit en Tuinafval"
  },
  {
    "nr": "234ABIO",
    "lat": "52.994049",
    "lng": "6.569276",
    "vulgraad": 0,
    "adres": "Oranjestraat 234 A",
    "fractieKleur": "GREEN",
    "heeftSensor": true,
    "fractie": "Groente, Fruit en Tuinafval"
  },
  {
    "nr": "234BIO",
    "lat": "52.99417331",
    "lng": "6.56837881",
    "vulgraad": 0,
    "adres": "Oranjestraat 234",
    "fractieKleur": "GREEN",
    "heeftSensor": true,
    "fractie": "Groente, Fruit en Tuinafval"
  },
  {
    "nr": "222BIO",
    "lat": "52.99813748",
    "lng": "6.56279122",
    "vulgraad": 0,
    "adres": "Oude molenstraat  222",
    "fractieKleur": "GREEN",
    "heeftSensor": true,
    "fractie": "Groente, Fruit en Tuinafval"
  },
  {
    "nr": "254BIO",
    "lat": "52.98873405",
    "lng": "6.5677846",
    "vulgraad": 0,
    "adres": "Overcingellaan   254",
    "fractieKleur": "GREEN",
    "heeftSensor": true,
    "fractie": "Groente, Fruit en Tuinafval"
  },
  {
    "nr": "223BIO",
    "lat": "52.99782935",
    "lng": "6.56358509",
    "vulgraad": 0,
    "adres": "Omloop  223",
    "fractieKleur": "GREEN",
    "heeftSensor": true,
    "fractie": "Groente, Fruit en Tuinafval"
  },
  {
    "nr": "224BIO",
    "lat": "52.99795123",
    "lng": "6.56408056",
    "vulgraad": 0,
    "adres": "Omloop  224",
    "fractieKleur": "GREEN",
    "heeftSensor": true,
    "fractie": "Groente, Fruit en Tuinafval"
  },
  {
    "nr": "147BIO",
    "lat": "53.00578406",
    "lng": "6.55599134",
    "vulgraad": 0,
    "adres": "Oosterbroekstraat  147",
    "fractieKleur": "GREEN",
    "heeftSensor": true,
    "fractie": "Groente, Fruit en Tuinafval"
  },
  {
    "nr": "205BIO",
    "lat": "52.99153228",
    "lng": "6.56379597",
    "vulgraad": 0,
    "adres": "Oosterhoutstraat  205",
    "fractieKleur": "GREEN",
    "heeftSensor": true,
    "fractie": "Groente, Fruit en Tuinafval"
  },
  {
    "nr": "173BIO",
    "lat": "53.00529452",
    "lng": "6.54696104",
    "vulgraad": 0,
    "adres": "Oostermoer  173",
    "fractieKleur": "GREEN",
    "heeftSensor": true,
    "fractie": "Groente, Fruit en Tuinafval"
  },
  {
    "nr": "174BIO",
    "lat": "53.00458274",
    "lng": "6.54810903",
    "vulgraad": 0,
    "adres": "Oostermoer  174",
    "fractieKleur": "GREEN",
    "heeftSensor": true,
    "fractie": "Groente, Fruit en Tuinafval"
  },
  {
    "nr": "173ABIO",
    "lat": "53.00490353",
    "lng": "6.54757661",
    "vulgraad": 0,
    "adres": "Oostermoer 173 A",
    "fractieKleur": "GREEN",
    "heeftSensor": true,
    "fractie": "Groente, Fruit en Tuinafval"
  },
  {
    "nr": "307BIO",
    "lat": "52.99662071",
    "lng": "6.56728647",
    "vulgraad": 0,
    "adres": "Jan Fabriciusstraat  307",
    "fractieKleur": "GREEN",
    "heeftSensor": true,
    "fractie": "Groente, Fruit en Tuinafval"
  },
  {
    "nr": "232ABIO",
    "lat": "52.995117",
    "lng": "6.56716734",
    "vulgraad": 0,
    "adres": "Javastraat 232 A ",
    "fractieKleur": "GREEN",
    "heeftSensor": true,
    "fractie": "Groente, Fruit en Tuinafval"
  },
  {
    "nr": "232BIO",
    "lat": "52.99534191",
    "lng": "6.56707882",
    "vulgraad": 0,
    "adres": "Javastraat  232",
    "fractieKleur": "GREEN",
    "heeftSensor": true,
    "fractie": "Groente, Fruit en Tuinafval"
  },
  {
    "nr": "215BIO",
    "lat": "52.99665942",
    "lng": "6.55736982",
    "vulgraad": 0,
    "adres": "Kanaalstraat  215",
    "fractieKleur": "GREEN",
    "heeftSensor": true,
    "fractie": "Groente, Fruit en Tuinafval"
  },
  {
    "nr": "216BIO",
    "lat": "52.99701406",
    "lng": "6.55654626",
    "vulgraad": 0,
    "adres": "Kanaalstraat  216",
    "fractieKleur": "GREEN",
    "heeftSensor": true,
    "fractie": "Groente, Fruit en Tuinafval"
  },
  {
    "nr": "148BIO",
    "lat": "53.00428211",
    "lng": "6.54984951",
    "vulgraad": 0,
    "adres": "Klenckestraat  148",
    "fractieKleur": "GREEN",
    "heeftSensor": true,
    "fractie": "Groente, Fruit en Tuinafval"
  },
  {
    "nr": "248BIO",
    "lat": "53.01812465",
    "lng": "6.58542779",
    "vulgraad": 0,
    "adres": "Kleuvenstee \" Noord \" 248",
    "fractieKleur": "GREEN",
    "heeftSensor": true,
    "fractie": "Groente, Fruit en Tuinafval"
  },
  {
    "nr": "247BIO",
    "lat": "53.01703299",
    "lng": "6.58608183",
    "vulgraad": 0,
    "adres": "Kleuvenstee \" Zuid \" 247",
    "fractieKleur": "GREEN",
    "heeftSensor": true,
    "fractie": "Groente, Fruit en Tuinafval"
  },
  {
    "nr": "103BIO",
    "lat": "53.01740265",
    "lng": "6.5844059",
    "vulgraad": 67,
    "adres": "Kleuvenstee 103",
    "fractieKleur": "GREEN",
    "heeftSensor": true,
    "fractie": "Groente, Fruit en Tuinafval"
  },
  {
    "nr": "228BIO",
    "lat": "52.99749572",
    "lng": "6.56559029",
    "vulgraad": 0,
    "adres": "Kloekhorststraat  228",
    "fractieKleur": "GREEN",
    "heeftSensor": true,
    "fractie": "Groente, Fruit en Tuinafval"
  },
  {
    "nr": "140BIO",
    "lat": "52.9939762",
    "lng": "6.57264466",
    "vulgraad": 0,
    "adres": "Koekoekstraat  140",
    "fractieKleur": "GREEN",
    "heeftSensor": true,
    "fractie": "Groente, Fruit en Tuinafval"
  },
  {
    "nr": "219BIO",
    "lat": "52.9977508",
    "lng": "6.5620807",
    "vulgraad": 0,
    "adres": "Korenmolen  219",
    "fractieKleur": "GREEN",
    "heeftSensor": true,
    "fractie": "Groente, Fruit en Tuinafval"
  },
  {
    "nr": "251BIO",
    "lat": "52.98533491",
    "lng": "6.57142282",
    "vulgraad": 0,
    "adres": "Lindelaan 251",
    "fractieKleur": "GREEN",
    "heeftSensor": true,
    "fractie": "Groente, Fruit en Tuinafval"
  },
  {
    "nr": "339BIO",
    "lat": "52.98533883",
    "lng": "6.57142304",
    "vulgraad": 0,
    "adres": "Lindelaan 49F, 9404KR Assen",
    "fractieKleur": "GREEN",
    "heeftSensor": true,
    "fractie": "Groente, Fruit en Tuinafval"
  },
  {
    "nr": "131BIO",
    "lat": "52.98824972",
    "lng": "6.57208752",
    "vulgraad": 0,
    "adres": "Lod. Napoleonplein  131",
    "fractieKleur": "GREEN",
    "heeftSensor": true,
    "fractie": "Groente, Fruit en Tuinafval"
  },
  {
    "nr": "249BIO",
    "lat": "53.01501599",
    "lng": "6.58022013",
    "vulgraad": 0,
    "adres": "Martin Luther Kingweg 68, 9403PW Assen",
    "fractieKleur": "GREEN",
    "heeftSensor": true,
    "fractie": "Groente, Fruit en Tuinafval"
  },
  {
    "nr": "180BIO",
    "lat": "53.00077246",
    "lng": "6.5429181",
    "vulgraad": 0,
    "adres": "Maria in Campislaan  180",
    "fractieKleur": "GREEN",
    "heeftSensor": true,
    "fractie": "Groente, Fruit en Tuinafval"
  },
  {
    "nr": "181BIO",
    "lat": "53.00054629",
    "lng": "6.54419422",
    "vulgraad": 0,
    "adres": "Maria in Campislaan  181",
    "fractieKleur": "GREEN",
    "heeftSensor": true,
    "fractie": "Groente, Fruit en Tuinafval"
  },
  {
    "nr": "182BIO",
    "lat": "53.00052924",
    "lng": "6.54430585",
    "vulgraad": 0,
    "adres": "Maria in Campislaan  182",
    "fractieKleur": "GREEN",
    "heeftSensor": true,
    "fractie": "Groente, Fruit en Tuinafval"
  },
  {
    "nr": "239BIO",
    "lat": "53.00653656",
    "lng": "6.55682206",
    "vulgraad": 0,
    "adres": "Mensingestraat   239",
    "fractieKleur": "GREEN",
    "heeftSensor": true,
    "fractie": "Groente, Fruit en Tuinafval"
  },
  {
    "nr": "212BIO",
    "lat": "52.99582025",
    "lng": "6.55796751",
    "vulgraad": 0,
    "adres": "Mercuriusplein 212",
    "fractieKleur": "GREEN",
    "heeftSensor": true,
    "fractie": "Groente, Fruit en Tuinafval"
  },
  {
    "nr": "297BIO",
    "lat": "52.97652519",
    "lng": "6.56994004",
    "vulgraad": 0,
    "adres": "Middenweg  297",
    "fractieKleur": "GREEN",
    "heeftSensor": true,
    "fractie": "Groente, Fruit en Tuinafval"
  },
  {
    "nr": "298BIO",
    "lat": "52.97611182",
    "lng": "6.56821855",
    "vulgraad": 0,
    "adres": "Middenweg  298",
    "fractieKleur": "GREEN",
    "heeftSensor": true,
    "fractie": "Groente, Fruit en Tuinafval"
  },
  {
    "nr": "316BIO",
    "lat": "52.97711973",
    "lng": "6.57343297",
    "vulgraad": 0,
    "adres": "Middenweg 316",
    "fractieKleur": "GREEN",
    "heeftSensor": true,
    "fractie": "Groente, Fruit en Tuinafval"
  },
  {
    "nr": "317BIO",
    "lat": "52.97901005",
    "lng": "6.56897642",
    "vulgraad": 0,
    "adres": "Middenweg 317",
    "fractieKleur": "GREEN",
    "heeftSensor": true,
    "fractie": "Groente, Fruit en Tuinafval"
  },
  {
    "nr": "128BIO",
    "lat": "52.9861575",
    "lng": "6.57092345",
    "vulgraad": 0,
    "adres": "Anreperstraat  128",
    "fractieKleur": "GREEN",
    "heeftSensor": true,
    "fractie": "Groente, Fruit en Tuinafval"
  },
  {
    "nr": "338BIO",
    "lat": "52.978072",
    "lng": "6.55753",
    "vulgraad": 0,
    "adres": "Beilerstraat",
    "fractieKleur": "GREEN",
    "heeftSensor": true,
    "fractie": "Groente, Fruit en Tuinafval"
  },
  {
    "nr": "152BIO",
    "lat": "52.98439141",
    "lng": "6.56162839",
    "vulgraad": 0,
    "adres": "Beilerstraat  152",
    "fractieKleur": "GREEN",
    "heeftSensor": true,
    "fractie": "Groente, Fruit en Tuinafval"
  },
  {
    "nr": "203BIO",
    "lat": "52.98869658",
    "lng": "6.55915798",
    "vulgraad": 0,
    "adres": "Beilerstraat  203",
    "fractieKleur": "GREEN",
    "heeftSensor": true,
    "fractie": "Groente, Fruit en Tuinafval"
  },
  {
    "nr": "208BIO",
    "lat": "52.99088303",
    "lng": "6.55471629",
    "vulgraad": 0,
    "adres": "Bellevue  208",
    "fractieKleur": "GREEN",
    "heeftSensor": true,
    "fractie": "Groente, Fruit en Tuinafval"
  },
  {
    "nr": "127BIO",
    "lat": "52.98520223",
    "lng": "6.56973769",
    "vulgraad": 0,
    "adres": "Berkenstraat  127",
    "fractieKleur": "GREEN",
    "heeftSensor": true,
    "fractie": "Groente, Fruit en Tuinafval"
  },
  {
    "nr": "334BIO",
    "lat": "52.99902566",
    "lng": "6.5600726",
    "vulgraad": 0,
    "adres": "Bernardstraat",
    "fractieKleur": "GREEN",
    "heeftSensor": true,
    "fractie": "Groente, Fruit en Tuinafval"
  },
  {
    "nr": "102BIO",
    "lat": "53.01731",
    "lng": "6.583194",
    "vulgraad": 0,
    "adres": "Beunheugte 62, 9403HW Assen",
    "fractieKleur": "GREEN",
    "heeftSensor": true,
    "fractie": "Groente, Fruit en Tuinafval"
  },
  {
    "nr": "322BIO",
    "lat": "53.01614443",
    "lng": "6.55707708",
    "vulgraad": 0,
    "adres": "Beuzeveen 322",
    "fractieKleur": "GREEN",
    "heeftSensor": true,
    "fractie": "Groente, Fruit en Tuinafval"
  },
  {
    "nr": "288BIO",
    "lat": "53.00840185",
    "lng": "6.51340429",
    "vulgraad": 0,
    "adres": "Bosroos  288",
    "fractieKleur": "GREEN",
    "heeftSensor": true,
    "fractie": "Groente, Fruit en Tuinafval"
  },
  {
    "nr": "119BIO",
    "lat": "52.98649116",
    "lng": "6.58271144",
    "vulgraad": 0,
    "adres": "Bremstraat  119",
    "fractieKleur": "GREEN",
    "heeftSensor": true,
    "fractie": "Groente, Fruit en Tuinafval"
  },
  {
    "nr": "299BIO",
    "lat": "52.98909304",
    "lng": "6.57928289",
    "vulgraad": 0,
    "adres": "Bremstraat  299",
    "fractieKleur": "GREEN",
    "heeftSensor": true,
    "fractie": "Groente, Fruit en Tuinafval"
  },
  {
    "nr": "236BIO",
    "lat": "52.99330648",
    "lng": "6.56302609",
    "vulgraad": 0,
    "adres": "Brink  236",
    "fractieKleur": "GREEN",
    "heeftSensor": true,
    "fractie": "Groente, Fruit en Tuinafval"
  },
  {
    "nr": "333BIO",
    "lat": "52.98758839",
    "lng": "6.57777471",
    "vulgraad": 0,
    "adres": "Brunelstraat",
    "fractieKleur": "GREEN",
    "heeftSensor": true,
    "fractie": "Groente, Fruit en Tuinafval"
  },
  {
    "nr": "138BIO",
    "lat": "52.993087",
    "lng": "6.57394054",
    "vulgraad": 0,
    "adres": "Buizerdstraat  138",
    "fractieKleur": "GREEN",
    "heeftSensor": true,
    "fractie": "Groente, Fruit en Tuinafval"
  },
  {
    "nr": "214BIO",
    "lat": "52.99620498",
    "lng": "6.55558911",
    "vulgraad": 0,
    "adres": "Burg. Agterstraat  214",
    "fractieKleur": "GREEN",
    "heeftSensor": true,
    "fractie": "Groente, Fruit en Tuinafval"
  },
  {
    "nr": "217BIO",
    "lat": "52.99757201",
    "lng": "6.5583196",
    "vulgraad": 0,
    "adres": "Burg. de Dreuplein  217",
    "fractieKleur": "GREEN",
    "heeftSensor": true,
    "fractie": "Groente, Fruit en Tuinafval"
  },
  {
    "nr": "151BIO",
    "lat": "53.00325954",
    "lng": "6.56002355",
    "vulgraad": 0,
    "adres": "C van der Lindenstr  151 ",
    "fractieKleur": "GREEN",
    "heeftSensor": true,
    "fractie": "Groente, Fruit en Tuinafval"
  },
  {
    "nr": "225BIO",
    "lat": "52.99670608",
    "lng": "6.56125692",
    "vulgraad": 0,
    "adres": "Cereshof  225",
    "fractieKleur": "GREEN",
    "heeftSensor": true,
    "fractie": "Groente, Fruit en Tuinafval"
  },
  {
    "nr": "242BIO",
    "lat": "52.99689657",
    "lng": "6.55912522",
    "vulgraad": 0,
    "adres": "Ceresplein \"Triade\"242",
    "fractieKleur": "GREEN",
    "heeftSensor": true,
    "fractie": "Groente, Fruit en Tuinafval"
  },
  {
    "nr": "256BIO",
    "lat": "52.9946353",
    "lng": "6.56657548",
    "vulgraad": 0,
    "adres": "Doevekamp (gemeentehuis) 256",
    "fractieKleur": "GREEN",
    "heeftSensor": true,
    "fractie": "Groente, Fruit en Tuinafval"
  },
  {
    "nr": "231BIO",
    "lat": "52.9956358",
    "lng": "6.56613365",
    "vulgraad": 0,
    "adres": "Doevenkamp  231",
    "fractieKleur": "GREEN",
    "heeftSensor": true,
    "fractie": "Groente, Fruit en Tuinafval"
  },
  {
    "nr": "120BIO",
    "lat": "52.98697427",
    "lng": "6.58082244",
    "vulgraad": 0,
    "adres": "Dotterbloemstraat 120",
    "fractieKleur": "GREEN",
    "heeftSensor": true,
    "fractie": "Groente, Fruit en Tuinafval"
  },
  {
    "nr": "121BIO",
    "lat": "52.98728619",
    "lng": "6.58053126",
    "vulgraad": 0,
    "adres": "Dotterbloemstraat 121",
    "fractieKleur": "GREEN",
    "heeftSensor": true,
    "fractie": "Groente, Fruit en Tuinafval"
  },
  {
    "nr": "122BIO",
    "lat": "52.98758863",
    "lng": "6.57999741",
    "vulgraad": 0,
    "adres": "Dotterbloemstraat 122",
    "fractieKleur": "GREEN",
    "heeftSensor": true,
    "fractie": "Groente, Fruit en Tuinafval"
  },
  {
    "nr": "312BIO",
    "lat": "52.99838026",
    "lng": "6.56757242",
    "vulgraad": 0,
    "adres": "Nijlandstraat (Brandweer) 312",
    "fractieKleur": "GREEN",
    "heeftSensor": true,
    "fractie": "Groente, Fruit en Tuinafval"
  },
  {
    "nr": "305BIO",
    "lat": "52.9984376",
    "lng": "6.56893456",
    "vulgraad": 0,
    "adres": "Nijlandstraat 305",
    "fractieKleur": "GREEN",
    "heeftSensor": true,
    "fractie": "Groente, Fruit en Tuinafval"
  },
  {
    "nr": "169BIO",
    "lat": "52.99781624",
    "lng": "6.55410015",
    "vulgraad": 0,
    "adres": "Nobellaan  169",
    "fractieKleur": "GREEN",
    "heeftSensor": true,
    "fractie": "Groente, Fruit en Tuinafval"
  },
  {
    "nr": "197BIO",
    "lat": "52.99734531",
    "lng": "6.55472803",
    "vulgraad": 0,
    "adres": "Nobellaan  197",
    "fractieKleur": "GREEN",
    "heeftSensor": true,
    "fractie": "Groente, Fruit en Tuinafval"
  },
  {
    "nr": "292BIO",
    "lat": "53.00795909",
    "lng": "6.55951557",
    "vulgraad": 0,
    "adres": "Obrechtlaan  292",
    "fractieKleur": "GREEN",
    "heeftSensor": true,
    "fractie": "Groente, Fruit en Tuinafval"
  },
  {
    "nr": "145BIO",
    "lat": "53.0063033",
    "lng": "6.5530939",
    "vulgraad": 0,
    "adres": "Oldengaardestraat  145",
    "fractieKleur": "GREEN",
    "heeftSensor": true,
    "fractie": "Groente, Fruit en Tuinafval"
  },
  {
    "nr": "146BIO",
    "lat": "53.00595866",
    "lng": "6.55446608",
    "vulgraad": 0,
    "adres": "Oldengaardestraat 146",
    "fractieKleur": "GREEN",
    "heeftSensor": true,
    "fractie": "Groente, Fruit en Tuinafval"
  },
  {
    "nr": "194BIO",
    "lat": "52.99843309",
    "lng": "6.55122756",
    "vulgraad": 0,
    "adres": "Einsteinlaan  194",
    "fractieKleur": "GREEN",
    "heeftSensor": true,
    "fractie": "Groente, Fruit en Tuinafval"
  },
  {
    "nr": "195BIO",
    "lat": "52.998122",
    "lng": "6.551789",
    "vulgraad": 0,
    "adres": "Einsteinlaan  195",
    "fractieKleur": "GREEN",
    "heeftSensor": true,
    "fractie": "Groente, Fruit en Tuinafval"
  },
  {
    "nr": "198BIO",
    "lat": "52.99696732",
    "lng": "6.55334046",
    "vulgraad": 0,
    "adres": "Einsteinlaan  198",
    "fractieKleur": "GREEN",
    "heeftSensor": true,
    "fractie": "Groente, Fruit en Tuinafval"
  },
  {
    "nr": "188BIO",
    "lat": "52.99891117",
    "lng": "6.53991882",
    "vulgraad": 0,
    "adres": "Ellen  188",
    "fractieKleur": "GREEN",
    "heeftSensor": true,
    "fractie": "Groente, Fruit en Tuinafval"
  },
  {
    "nr": "189BIO",
    "lat": "52.9981515",
    "lng": "6.53862356",
    "vulgraad": 0,
    "adres": "Epe  189",
    "fractieKleur": "GREEN",
    "heeftSensor": true,
    "fractie": "Groente, Fruit en Tuinafval"
  },
  {
    "nr": "246BIO",
    "lat": "53.00326068",
    "lng": "6.5154405",
    "vulgraad": 0,
    "adres": "Frambozenhof 246",
    "fractieKleur": "GREEN",
    "heeftSensor": true,
    "fractie": "Groente, Fruit en Tuinafval"
  },
  {
    "nr": "101BIO",
    "lat": "53.02462657",
    "lng": "6.5960402",
    "vulgraad": 0,
    "adres": "Fuutmesschen 101",
    "fractieKleur": "GREEN",
    "heeftSensor": true,
    "fractie": "Groente, Fruit en Tuinafval"
  },
  {
    "nr": "133BIO",
    "lat": "52.9945061",
    "lng": "6.57987307",
    "vulgraad": 0,
    "adres": "Gerard Doustraat  133",
    "fractieKleur": "GREEN",
    "heeftSensor": true,
    "fractie": "Groente, Fruit en Tuinafval"
  },
  {
    "nr": "134BIO",
    "lat": "52.99450713",
    "lng": "6.58071318",
    "vulgraad": 0,
    "adres": "Gerard Doustraat 134",
    "fractieKleur": "GREEN",
    "heeftSensor": true,
    "fractie": "Groente, Fruit en Tuinafval"
  },
  {
    "nr": "294BIO",
    "lat": "53.00028472",
    "lng": "6.51205801",
    "vulgraad": 0,
    "adres": "Gildestraat  294",
    "fractieKleur": "GREEN",
    "heeftSensor": true,
    "fractie": "Groente, Fruit en Tuinafval"
  },
  {
    "nr": "183BIO",
    "lat": "53.00094992",
    "lng": "6.53816695",
    "vulgraad": 0,
    "adres": "Gouwe  183",
    "fractieKleur": "GREEN",
    "heeftSensor": true,
    "fractie": "Groente, Fruit en Tuinafval"
  },
  {
    "nr": "184BIO",
    "lat": "53.00028551",
    "lng": "6.53700257",
    "vulgraad": 0,
    "adres": "Gouwe  184",
    "fractieKleur": "GREEN",
    "heeftSensor": true,
    "fractie": "Groente, Fruit en Tuinafval"
  },
  {
    "nr": "185BIO",
    "lat": "52.99962749",
    "lng": "6.53599842",
    "vulgraad": 0,
    "adres": "Gouwe  185",
    "fractieKleur": "GREEN",
    "heeftSensor": true,
    "fractie": "Groente, Fruit en Tuinafval"
  },
  {
    "nr": "108BIO",
    "lat": "53.018529",
    "lng": "6.561727",
    "vulgraad": 0,
    "adres": "Gravenlanden 35, 9407JP Assen",
    "fractieKleur": "GREEN",
    "heeftSensor": true,
    "fractie": "Groente, Fruit en Tuinafval"
  },
  {
    "nr": "186BIO",
    "lat": "52.99873585",
    "lng": "6.53518105",
    "vulgraad": 0,
    "adres": "Grift  186",
    "fractieKleur": "GREEN",
    "heeftSensor": true,
    "fractie": "Groente, Fruit en Tuinafval"
  },
  {
    "nr": "319BIO",
    "lat": "52.99719978",
    "lng": "6.56433164",
    "vulgraad": 0,
    "adres": "Groningerstraat  Jongman 319",
    "fractieKleur": "GREEN",
    "heeftSensor": true,
    "fractie": "Groente, Fruit en Tuinafval"
  },
  {
    "nr": "320BIO",
    "lat": "52.99802251",
    "lng": "6.56527586",
    "vulgraad": 0,
    "adres": "Groningerstraat 320",
    "fractieKleur": "GREEN",
    "heeftSensor": true,
    "fractie": "Groente, Fruit en Tuinafval"
  },
  {
    "nr": "337BIO",
    "lat": "52.97503781",
    "lng": "6.56831577",
    "vulgraad": 0,
    "adres": "Hendrik van Boeijenlaan",
    "fractieKleur": "GREEN",
    "heeftSensor": true,
    "fractie": "Groente, Fruit en Tuinafval"
  },
  {
    "nr": "271BIO",
    "lat": "52.997383",
    "lng": "6.574055",
    "vulgraad": 0,
    "adres": "Herman Broodstraat  271",
    "fractieKleur": "GREEN",
    "heeftSensor": true,
    "fractie": "Groente, Fruit en Tuinafval"
  },
  {
    "nr": "276BIO",
    "lat": "52.99848937",
    "lng": "6.56010971",
    "vulgraad": 0,
    "adres": "Het  Kanaal  276",
    "fractieKleur": "GREEN",
    "heeftSensor": true,
    "fractie": "Groente, Fruit en Tuinafval"
  },
  {
    "nr": "221BIO",
    "lat": "52.99896037",
    "lng": "6.56473828",
    "vulgraad": 0,
    "adres": "Het Kanaal  221",
    "fractieKleur": "GREEN",
    "heeftSensor": true,
    "fractie": "Groente, Fruit en Tuinafval"
  },
  {
    "nr": "230BIO",
    "lat": "52.99866495",
    "lng": "6.56101931",
    "vulgraad": 0,
    "adres": "Het Kanaal  230",
    "fractieKleur": "GREEN",
    "heeftSensor": true,
    "fractie": "Groente, Fruit en Tuinafval"
  },
  {
    "nr": "275BIO",
    "lat": "52.99985318",
    "lng": "6.56350209",
    "vulgraad": 0,
    "adres": "Het Kanaal / van Houtenstraat 275",
    "fractieKleur": "GREEN",
    "heeftSensor": true,
    "fractie": "Groente, Fruit en Tuinafval"
  },
  {
    "nr": "272BIO",
    "lat": "52.9966459",
    "lng": "6.57720425",
    "vulgraad": 0,
    "adres": "Het Palet  272",
    "fractieKleur": "GREEN",
    "heeftSensor": true,
    "fractie": "Groente, Fruit en Tuinafval"
  },
  {
    "nr": "157BIO",
    "lat": "53.00080402",
    "lng": "6.55767274",
    "vulgraad": 0,
    "adres": "A F D Sav. Lohmanstr  157",
    "fractieKleur": "GREEN",
    "heeftSensor": true,
    "fractie": "Groente, Fruit en Tuinafval"
  },
  {
    "nr": "245BIO",
    "lat": "53.003377",
    "lng": "6.513802",
    "vulgraad": 0,
    "adres": "Aardbeihof 1, 9408BK Assen",
    "fractieKleur": "GREEN",
    "heeftSensor": true,
    "fractie": "Groente, Fruit en Tuinafval"
  },
  {
    "nr": "328BIO",
    "lat": "52.99622013",
    "lng": "6.56932551",
    "vulgraad": 0,
    "adres": "Abel Tasmanplein 127, 9401AZ Assen",
    "fractieKleur": "GREEN",
    "heeftSensor": true,
    "fractie": "Groente, Fruit en Tuinafval"
  },
  {
    "nr": "209BIO",
    "lat": "52.99507038",
    "lng": "6.55711882",
    "vulgraad": 0,
    "adres": "Alteveerstraat 209",
    "fractieKleur": "GREEN",
    "heeftSensor": true,
    "fractie": "Groente, Fruit en Tuinafval"
  },
  {
    "nr": "109BIO",
    "lat": "53.00778837",
    "lng": "6.54120639",
    "vulgraad": 0,
    "adres": "Amstelstraat 109, 9406TC Assen",
    "fractieKleur": "GREEN",
    "heeftSensor": true,
    "fractie": "Groente, Fruit en Tuinafval"
  },
  {
    "nr": "129BIO",
    "lat": "52.98700679",
    "lng": "6.57036596",
    "vulgraad": 0,
    "adres": "Anemoonstraat  129",
    "fractieKleur": "GREEN",
    "heeftSensor": true,
    "fractie": "Groente, Fruit en Tuinafval"
  },
  {
    "nr": "130BIO",
    "lat": "52.98765",
    "lng": "6.570502",
    "vulgraad": 0,
    "adres": "Anemoonstraat  130",
    "fractieKleur": "GREEN",
    "heeftSensor": true,
    "fractie": "Groente, Fruit en Tuinafval"
  },
  {
    "nr": "278BIO",
    "lat": "53.0000721",
    "lng": "6.56708175",
    "vulgraad": 0,
    "adres": "Anne de Vriesstraat  278",
    "fractieKleur": "GREEN",
    "heeftSensor": true,
    "fractie": "Groente, Fruit en Tuinafval"
  },
  {
    "nr": "135",
    "lat": "52.99267952",
    "lng": "6.57706071",
    "vulgraad": 61,
    "adres": "Sperwerstraat  135",
    "fractieKleur": "GREY",
    "heeftSensor": true,
    "fractie": "Restafval"
  },
  {
    "nr": "329",
    "lat": "52.99222018",
    "lng": "6.57666897",
    "vulgraad": 15,
    "adres": "Sperwerstraat 329",
    "fractieKleur": "GREY",
    "heeftSensor": true,
    "fractie": "Restafval"
  },
  {
    "nr": "177",
    "lat": "53.00153642",
    "lng": "6.54840505",
    "vulgraad": 45,
    "adres": "Stadhouderslaan  177",
    "fractieKleur": "GREY",
    "heeftSensor": true,
    "fractie": "Restafval"
  },
  {
    "nr": "178",
    "lat": "53.00129994",
    "lng": "6.54808241",
    "vulgraad": 20,
    "adres": "Stadhouderslaan  178",
    "fractieKleur": "GREY",
    "heeftSensor": true,
    "fractie": "Restafval"
  },
  {
    "nr": "311",
    "lat": "53.00179567",
    "lng": "6.55185287",
    "vulgraad": 45,
    "adres": "Stadhouderslaan 311",
    "fractieKleur": "GREY",
    "heeftSensor": true,
    "fractie": "Restafval"
  },
  {
    "nr": "261",
    "lat": "53.00478154",
    "lng": "6.5079785",
    "vulgraad": 14,
    "adres": "Stedewaarts  261",
    "fractieKleur": "GREY",
    "heeftSensor": true,
    "fractie": "Restafval"
  },
  {
    "nr": "141",
    "lat": "52.99470179",
    "lng": "6.57518702",
    "vulgraad": 37,
    "adres": "Steendijk  141",
    "fractieKleur": "GREY",
    "heeftSensor": true,
    "fractie": "Restafval"
  },
  {
    "nr": "100",
    "lat": "53.025587",
    "lng": "6.591153",
    "vulgraad": 66,
    "adres": "Nabij Steigermesschen  0, 9403ZS Assen",
    "fractieKleur": "GREY",
    "heeftSensor": true,
    "fractie": "Restafval"
  },
  {
    "nr": "257",
    "lat": "53.01247858",
    "lng": "6.59015227",
    "vulgraad": 10,
    "adres": "Stoepveldsingel  257",
    "fractieKleur": "GREY",
    "heeftSensor": true,
    "fractie": "Restafval"
  },
  {
    "nr": "190R",
    "lat": "52.99769039",
    "lng": "6.53909507",
    "vulgraad": 87,
    "adres": "Stroom 190",
    "fractieKleur": "GREY",
    "heeftSensor": true,
    "fractie": "Restafval"
  },
  {
    "nr": "280",
    "lat": "52.99981541",
    "lng": "6.55192775",
    "vulgraad": 62,
    "adres": "Thorbeckelaan   280",
    "fractieKleur": "GREY",
    "heeftSensor": true,
    "fractie": "Restafval"
  },
  {
    "nr": "153",
    "lat": "53.00045205",
    "lng": "6.55284965",
    "vulgraad": 47,
    "adres": "Thorbeckelaan  153",
    "fractieKleur": "GREY",
    "heeftSensor": true,
    "fractie": "Restafval"
  },
  {
    "nr": "154",
    "lat": "53.00010703",
    "lng": "6.55196996",
    "vulgraad": 25,
    "adres": "Thorbeckelaan  154",
    "fractieKleur": "GREY",
    "heeftSensor": true,
    "fractie": "Restafval"
  },
  {
    "nr": "155",
    "lat": "53.00007781",
    "lng": "6.55263574",
    "vulgraad": 28,
    "adres": "Thorbeckelaan  155",
    "fractieKleur": "GREY",
    "heeftSensor": true,
    "fractie": "Restafval"
  },
  {
    "nr": "244",
    "lat": "52.99659477",
    "lng": "6.51211909",
    "vulgraad": 46,
    "adres": "Tjalk  244",
    "fractieKleur": "GREY",
    "heeftSensor": true,
    "fractie": "Restafval"
  },
  {
    "nr": "327",
    "lat": "52.99276437",
    "lng": "6.56164447",
    "vulgraad": 45,
    "adres": "Torenlaan MCB",
    "fractieKleur": "GREY",
    "heeftSensor": true,
    "fractie": "Restafval"
  },
  {
    "nr": "207",
    "lat": "52.99127268",
    "lng": "6.56586369",
    "vulgraad": 59,
    "adres": "Zuidhaege  207",
    "fractieKleur": "GREY",
    "heeftSensor": true,
    "fractie": "Restafval"
  },
  {
    "nr": "315",
    "lat": "53.01566728",
    "lng": "6.56422842",
    "vulgraad": 52,
    "adres": "Zuringes 315",
    "fractieKleur": "GREY",
    "heeftSensor": true,
    "fractie": "Restafval"
  },
  {
    "nr": "237",
    "lat": "53.00658749",
    "lng": "6.55943424",
    "vulgraad": 55,
    "adres": "Zwartwatersweg   237",
    "fractieKleur": "GREY",
    "heeftSensor": true,
    "fractie": "Restafval"
  },
  {
    "nr": "191",
    "lat": "52.99672659",
    "lng": "6.53899537",
    "vulgraad": 48,
    "adres": "Zwin  191",
    "fractieKleur": "GREY",
    "heeftSensor": true,
    "fractie": "Restafval"
  },
  {
    "nr": "112",
    "lat": "52.98587947",
    "lng": "6.58219512",
    "vulgraad": 87,
    "adres": "Speenkruidstraat 161, 9404HG Assen",
    "fractieKleur": "GREY",
    "heeftSensor": true,
    "fractie": "Restafval"
  },
  {
    "nr": "341",
    "lat": "53.00094244",
    "lng": "6.5413928",
    "vulgraad": 26,
    "adres": "Beek",
    "fractieKleur": "GREY",
    "heeftSensor": true,
    "fractie": "Restafval"
  },
  {
    "nr": "342",
    "lat": "0",
    "lng": "0",
    "vulgraad": 19,
    "adres": "Groen van Prinsterenlaan 30,  Assen",
    "fractieKleur": "GREY",
    "heeftSensor": true,
    "fractie": "Restafval"
  },
  {
    "nr": "349",
    "lat": "52.998269",
    "lng": "6.555539",
    "vulgraad": 27,
    "adres": "Nansenstraat 0, 9402AJ Assen",
    "fractieKleur": "GREY",
    "heeftSensor": true,
    "fractie": "Restafval"
  },
  {
    "nr": "123BIO",
    "lat": "52.98792711",
    "lng": "6.57913549",
    "vulgraad": 0,
    "adres": "Dotterbloemstraat 123",
    "fractieKleur": "GREEN",
    "heeftSensor": true,
    "fractie": "Groente, Fruit en Tuinafval"
  },
  {
    "nr": "158BIO",
    "lat": "53.00191023",
    "lng": "6.56271709",
    "vulgraad": 0,
    "adres": "DR A Kuyperstraat  158",
    "fractieKleur": "GREEN",
    "heeftSensor": true,
    "fractie": "Groente, Fruit en Tuinafval"
  },
  {
    "nr": "159BIO",
    "lat": "53.00180377",
    "lng": "6.56194271",
    "vulgraad": 0,
    "adres": "DR A Kuyperstraat  159",
    "fractieKleur": "GREEN",
    "heeftSensor": true,
    "fractie": "Groente, Fruit en Tuinafval"
  },
  {
    "nr": "160BIO",
    "lat": "53.00170054",
    "lng": "6.56116023",
    "vulgraad": 0,
    "adres": "DR A Kuyperstraat  160",
    "fractieKleur": "GREEN",
    "heeftSensor": true,
    "fractie": "Groente, Fruit en Tuinafval"
  },
  {
    "nr": "161BIO",
    "lat": "53.00159803",
    "lng": "6.56033659",
    "vulgraad": 0,
    "adres": "DR A Kuyperstraat  161",
    "fractieKleur": "GREEN",
    "heeftSensor": true,
    "fractie": "Groente, Fruit en Tuinafval"
  },
  {
    "nr": "165BIO",
    "lat": "52.99911618",
    "lng": "6.55817531",
    "vulgraad": 0,
    "adres": "DR Schaepmanstraat  165",
    "fractieKleur": "GREEN",
    "heeftSensor": true,
    "fractie": "Groente, Fruit en Tuinafval"
  },
  {
    "nr": "150BIO",
    "lat": "53.00367468",
    "lng": "6.55581787",
    "vulgraad": 0,
    "adres": "Echtenstraat  150",
    "fractieKleur": "GREEN",
    "heeftSensor": true,
    "fractie": "Groente, Fruit en Tuinafval"
  },
  {
    "nr": "187BIO",
    "lat": "52.99969882",
    "lng": "6.54120854",
    "vulgraad": 0,
    "adres": "Eem  187",
    "fractieKleur": "GREEN",
    "heeftSensor": true,
    "fractie": "Groente, Fruit en Tuinafval"
  },
  {
    "nr": "267",
    "lat": "53.00178407",
    "lng": "6.56892308",
    "vulgraad": 84,
    "adres": "Vondellaan  267",
    "fractieKleur": "GREY",
    "heeftSensor": true,
    "fractie": "Restafval"
  },
  {
    "nr": "268",
    "lat": "53.0009918",
    "lng": "6.56907785",
    "vulgraad": 85,
    "adres": "Vondellaan  268",
    "fractieKleur": "GREY",
    "heeftSensor": true,
    "fractie": "Restafval"
  },
  {
    "nr": "332",
    "lat": "52.98970909",
    "lng": "6.58006839",
    "vulgraad": 0,
    "adres": "Vredeveldseweg",
    "fractieKleur": "GREY",
    "heeftSensor": true,
    "fractie": "Restafval"
  },
  {
    "nr": "125",
    "lat": "52.98864019",
    "lng": "6.58186917",
    "vulgraad": 8,
    "adres": "Vredeveldseweg  125",
    "fractieKleur": "GREY",
    "heeftSensor": true,
    "fractie": "Restafval"
  },
  {
    "nr": "291",
    "lat": "52.98885582",
    "lng": "6.58149284",
    "vulgraad": 42,
    "adres": "Vredeveldseweg  291",
    "fractieKleur": "GREY",
    "heeftSensor": true,
    "fractie": "Restafval"
  },
  {
    "nr": "321",
    "lat": "52.98808512",
    "lng": "6.5848685",
    "vulgraad": 48,
    "adres": "Vredeveldseweg 321",
    "fractieKleur": "GREY",
    "heeftSensor": true,
    "fractie": "Restafval"
  },
  {
    "nr": "324",
    "lat": "53.00518723",
    "lng": "6.57417847",
    "vulgraad": 9,
    "adres": "W.A. Scholtenstraat 324",
    "fractieKleur": "GREY",
    "heeftSensor": true,
    "fractie": "Restafval"
  },
  {
    "nr": "106",
    "lat": "53.01631268",
    "lng": "6.5594119",
    "vulgraad": 47,
    "adres": "Walakker 106",
    "fractieKleur": "GREY",
    "heeftSensor": true,
    "fractie": "Restafval"
  },
  {
    "nr": "302",
    "lat": "52.99466501",
    "lng": "6.56012136",
    "vulgraad": 70,
    "adres": "Weiersloop  302",
    "fractieKleur": "GREY",
    "heeftSensor": true,
    "fractie": "Restafval"
  },
  {
    "nr": "211",
    "lat": "52.99485008",
    "lng": "6.55926216",
    "vulgraad": 9,
    "adres": "Weiersstraat   211",
    "fractieKleur": "GREY",
    "heeftSensor": true,
    "fractie": "Restafval"
  },
  {
    "nr": "213",
    "lat": "52.99557046",
    "lng": "6.55778595",
    "vulgraad": 89,
    "adres": "Weiersstraat  213",
    "fractieKleur": "GREY",
    "heeftSensor": true,
    "fractie": "Restafval"
  },
  {
    "nr": "325",
    "lat": "53.02129797",
    "lng": "6.57340679",
    "vulgraad": 37,
    "adres": "Hoekbree 325",
    "fractieKleur": "GREY",
    "heeftSensor": true,
    "fractie": "Restafval"
  },
  {
    "nr": "269",
    "lat": "53.00160304",
    "lng": "6.56675293",
    "vulgraad": 69,
    "adres": "Huygenstraat  269",
    "fractieKleur": "GREY",
    "heeftSensor": true,
    "fractie": "Restafval"
  },
  {
    "nr": "270",
    "lat": "53.00068836",
    "lng": "6.56689656",
    "vulgraad": 49,
    "adres": "Huygenstraat  270",
    "fractieKleur": "GREY",
    "heeftSensor": true,
    "fractie": "Restafval"
  },
  {
    "nr": "156",
    "lat": "53.00107612",
    "lng": "6.55617957",
    "vulgraad": 72,
    "adres": "J.H.A. Schaperstraat  156",
    "fractieKleur": "GREY",
    "heeftSensor": true,
    "fractie": "Restafval"
  },
  {
    "nr": "226",
    "lat": "52.99863378",
    "lng": "6.56698043",
    "vulgraad": 12,
    "adres": "Jan Fabriciusstraat  226",
    "fractieKleur": "GREY",
    "heeftSensor": true,
    "fractie": "Restafval"
  },
  {
    "nr": "227",
    "lat": "52.99800773",
    "lng": "6.56714577",
    "vulgraad": 63,
    "adres": "Jan Fabriciusstraat  227",
    "fractieKleur": "GREY",
    "heeftSensor": true,
    "fractie": "Restafval"
  },
  {
    "nr": "306",
    "lat": "52.99660456",
    "lng": "6.56727843",
    "vulgraad": 57,
    "adres": "Jan Fabriciusstraat  306",
    "fractieKleur": "GREY",
    "heeftSensor": true,
    "fractie": "Restafval"
  },
  {
    "nr": "346",
    "lat": "53.00274058",
    "lng": "6.53180659",
    "vulgraad": 10,
    "adres": "Mien Ruysweg 36, 9408KB Assen",
    "fractieKleur": "GREY",
    "heeftSensor": true,
    "fractie": "Restafval"
  },
  {
    "nr": "347",
    "lat": "53.00268892",
    "lng": "6.5316081",
    "vulgraad": 73,
    "adres": "Mien Ruysweg 36, 9408KB Assen",
    "fractieKleur": "GREY",
    "heeftSensor": true,
    "fractie": "Restafval"
  },
  {
    "nr": "105",
    "lat": "53.016106",
    "lng": "6.562003",
    "vulgraad": 39,
    "adres": "Winkelakker 105",
    "fractieKleur": "GREY",
    "heeftSensor": true,
    "fractie": "Restafval"
  },
  {
    "nr": "99",
    "lat": "52.991919",
    "lng": "6.580184",
    "vulgraad": 41,
    "adres": "Wisselbak 99",
    "fractieKleur": "GREY",
    "heeftSensor": true,
    "fractie": "Restafval"
  },
  {
    "nr": "290",
    "lat": "52.98746073",
    "lng": "6.5287459",
    "vulgraad": 80,
    "adres": "Witterhoofdweg  290",
    "fractieKleur": "GREY",
    "heeftSensor": true,
    "fractie": "Restafval"
  },
  {
    "nr": "115",
    "lat": "52.98486591",
    "lng": "6.5798311",
    "vulgraad": 0,
    "adres": "Zilverschoonstraat 115",
    "fractieKleur": "GREY",
    "heeftSensor": true,
    "fractie": "Restafval"
  },
  {
    "nr": "116",
    "lat": "52.98529471",
    "lng": "6.57882137",
    "vulgraad": 0,
    "adres": "Zilverschoonstraat 116",
    "fractieKleur": "GREY",
    "heeftSensor": true,
    "fractie": "Restafval"
  },
  {
    "nr": "117",
    "lat": "52.98530365",
    "lng": "6.5787781",
    "vulgraad": 0,
    "adres": "Zilverschoonstraat 117",
    "fractieKleur": "GREY",
    "heeftSensor": true,
    "fractie": "Restafval"
  },
  {
    "nr": "118",
    "lat": "52.98585742",
    "lng": "6.57776535",
    "vulgraad": 25,
    "adres": "Zilverschoonstraat 118",
    "fractieKleur": "GREY",
    "heeftSensor": true,
    "fractie": "Restafval"
  },
  {
    "nr": "296",
    "lat": "52.99914893",
    "lng": "6.51353481",
    "vulgraad": 85,
    "adres": "Zuidergracht  296",
    "fractieKleur": "GREY",
    "heeftSensor": true,
    "fractie": "Restafval"
  },
  {
    "nr": "340",
    "lat": "53.00442243",
    "lng": "6.55668139",
    "vulgraad": 52,
    "adres": "Molenstraat 340",
    "fractieKleur": "GREY",
    "heeftSensor": true,
    "fractie": "Restafval"
  },
  {
    "nr": "348",
    "lat": "52.99061059",
    "lng": "6.56629308",
    "vulgraad": 63,
    "adres": "Zuidhaege 11, 9401NZ Assen",
    "fractieKleur": "GREY",
    "heeftSensor": true,
    "fractie": "Restafval"
  },
  {
    "nr": "113",
    "lat": "52.98528229",
    "lng": "6.58115996",
    "vulgraad": 34,
    "adres": "Speenkruidstraat 46,  Assen",
    "fractieKleur": "GREY",
    "heeftSensor": true,
    "fractie": "Restafval"
  },
  {
    "nr": "114",
    "lat": "52.98463495",
    "lng": "6.58014436",
    "vulgraad": 80,
    "adres": "Speenkruidstraat 353, 9404HP Assen",
    "fractieKleur": "GREY",
    "heeftSensor": true,
    "fractie": "Restafval"
  },
  {
    "nr": "234",
    "lat": "52.99417331",
    "lng": "6.56837881",
    "vulgraad": 62,
    "adres": "Oranjestraat 234",
    "fractieKleur": "GREY",
    "heeftSensor": true,
    "fractie": "Restafval"
  },
  {
    "nr": "234A",
    "lat": "52.994049",
    "lng": "6.569276",
    "vulgraad": 36,
    "adres": "Oranjestraat 234 A",
    "fractieKleur": "GREY",
    "heeftSensor": true,
    "fractie": "Restafval"
  },
  {
    "nr": "222",
    "lat": "52.99813748",
    "lng": "6.56279122",
    "vulgraad": 26,
    "adres": "Oude molenstraat  222",
    "fractieKleur": "GREY",
    "heeftSensor": true,
    "fractie": "Restafval"
  },
  {
    "nr": "254",
    "lat": "52.98873405",
    "lng": "6.5677846",
    "vulgraad": 55,
    "adres": "Overcingellaan   254",
    "fractieKleur": "GREY",
    "heeftSensor": true,
    "fractie": "Restafval"
  },
  {
    "nr": "255",
    "lat": "53.0131648",
    "lng": "6.58875668",
    "vulgraad": 6,
    "adres": "Overstoep  255",
    "fractieKleur": "GREY",
    "heeftSensor": true,
    "fractie": "Restafval"
  },
  {
    "nr": "265",
    "lat": "53.01012565",
    "lng": "6.56408875",
    "vulgraad": 20,
    "adres": "Paganinilaan  265",
    "fractieKleur": "GREY",
    "heeftSensor": true,
    "fractie": "Restafval"
  },
  {
    "nr": "202",
    "lat": "52.988563",
    "lng": "6.565346",
    "vulgraad": 44,
    "adres": "Parkplein  202",
    "fractieKleur": "GREY",
    "heeftSensor": true,
    "fractie": "Restafval"
  },
  {
    "nr": "253",
    "lat": "52.98881047",
    "lng": "6.57448083",
    "vulgraad": 22,
    "adres": "Pelikaanstraat 253",
    "fractieKleur": "GREY",
    "heeftSensor": true,
    "fractie": "Restafval"
  },
  {
    "nr": "258",
    "lat": "53.0038146",
    "lng": "6.51706394",
    "vulgraad": 10,
    "adres": "Perzikstraat  258",
    "fractieKleur": "GREY",
    "heeftSensor": true,
    "fractie": "Restafval"
  },
  {
    "nr": "259",
    "lat": "53.00459621",
    "lng": "6.5154716",
    "vulgraad": 7,
    "adres": "Perzikstraat 72, 9408BS Assen",
    "fractieKleur": "GREY",
    "heeftSensor": true,
    "fractie": "Restafval"
  },
  {
    "nr": "110",
    "lat": "52.99359336",
    "lng": "6.5126958",
    "vulgraad": 56,
    "adres": "Planetenlaan  110",
    "fractieKleur": "GREY",
    "heeftSensor": true,
    "fractie": "Restafval"
  },
  {
    "nr": "279",
    "lat": "52.98975535",
    "lng": "6.58231262",
    "vulgraad": 55,
    "adres": "Platolaan   279",
    "fractieKleur": "GREY",
    "heeftSensor": true,
    "fractie": "Restafval"
  },
  {
    "nr": "260",
    "lat": "52.98976495",
    "lng": "6.56160244",
    "vulgraad": 63,
    "adres": "Prins Claus Plantsoen  260",
    "fractieKleur": "GREY",
    "heeftSensor": true,
    "fractie": "Restafval"
  },
  {
    "nr": "204",
    "lat": "52.99126061",
    "lng": "6.56252583",
    "vulgraad": 12,
    "adres": "Prinses Beatrixstraat",
    "fractieKleur": "GREY",
    "heeftSensor": true,
    "fractie": "Restafval"
  },
  {
    "nr": "175",
    "lat": "53.00206679",
    "lng": "6.54702031",
    "vulgraad": 25,
    "adres": "Rabenhauptstraat  175",
    "fractieKleur": "GREY",
    "heeftSensor": true,
    "fractie": "Restafval"
  },
  {
    "nr": "330",
    "lat": "52.99545689",
    "lng": "6.57517925",
    "vulgraad": 31,
    "adres": "Rembrandtlaan 330",
    "fractieKleur": "GREY",
    "heeftSensor": true,
    "fractie": "Restafval"
  },
  {
    "nr": "252",
    "lat": "52.9899483",
    "lng": "6.57452791",
    "vulgraad": 75,
    "adres": "Resedastraat 252",
    "fractieKleur": "GREY",
    "heeftSensor": true,
    "fractie": "Restafval"
  },
  {
    "nr": "262",
    "lat": "53.01051466",
    "lng": "6.54547475",
    "vulgraad": 29,
    "adres": "Rijnstraat   262",
    "fractieKleur": "GREY",
    "heeftSensor": true,
    "fractie": "Restafval"
  },
  {
    "nr": "295",
    "lat": "52.99968333",
    "lng": "6.51599583",
    "vulgraad": 57,
    "adres": "Traverse  295",
    "fractieKleur": "GREY",
    "heeftSensor": true,
    "fractie": "Restafval"
  },
  {
    "nr": "250",
    "lat": "52.98959093",
    "lng": "6.57724168",
    "vulgraad": 42,
    "adres": "Tuinstraat 250",
    "fractieKleur": "GREY",
    "heeftSensor": true,
    "fractie": "Restafval"
  },
  {
    "nr": "318",
    "lat": "52.99277464",
    "lng": "6.55837719",
    "vulgraad": 35,
    "adres": "Ulohof 318",
    "fractieKleur": "GREY",
    "heeftSensor": true,
    "fractie": "Restafval"
  },
  {
    "nr": "274",
    "lat": "52.994614",
    "lng": "6.54934044",
    "vulgraad": 56,
    "adres": "Vaart N.Z.  274",
    "fractieKleur": "GREY",
    "heeftSensor": true,
    "fractie": "Restafval"
  },
  {
    "nr": "210",
    "lat": "52.99404522",
    "lng": "6.55321543",
    "vulgraad": 71,
    "adres": "Vaart NZ  210",
    "fractieKleur": "GREY",
    "heeftSensor": true,
    "fractie": "Restafval"
  },
  {
    "nr": "285",
    "lat": "52.99365417",
    "lng": "6.55698378",
    "vulgraad": 31,
    "adres": "Vaart ZZ  285",
    "fractieKleur": "GREY",
    "heeftSensor": true,
    "fractie": "Restafval"
  },
  {
    "nr": "286",
    "lat": "52.99371672",
    "lng": "6.5549569",
    "vulgraad": 52,
    "adres": "Vaart ZZ  286",
    "fractieKleur": "GREY",
    "heeftSensor": true,
    "fractie": "Restafval"
  },
  {
    "nr": "179",
    "lat": "53.00194031",
    "lng": "6.54135629",
    "vulgraad": 72,
    "adres": "Van der Scheerstraat  179",
    "fractieKleur": "GREY",
    "heeftSensor": true,
    "fractie": "Restafval"
  },
  {
    "nr": "314",
    "lat": "52.99861255",
    "lng": "6.54946687",
    "vulgraad": 14,
    "adres": "Van Heuven Goedhartlaan 314",
    "fractieKleur": "GREY",
    "heeftSensor": true,
    "fractie": "Restafval"
  },
  {
    "nr": "193",
    "lat": "52.99856252",
    "lng": "6.54787468",
    "vulgraad": 77,
    "adres": "Van Heuveng \"Wijde Blik\"  193",
    "fractieKleur": "GREY",
    "heeftSensor": true,
    "fractie": "Restafval"
  },
  {
    "nr": "336",
    "lat": "52.99822014",
    "lng": "6.56993358",
    "vulgraad": 67,
    "adres": "Veemarktstraat",
    "fractieKleur": "GREY",
    "heeftSensor": true,
    "fractie": "Restafval"
  },
  {
    "nr": "264",
    "lat": "53.00931715",
    "lng": "6.56289735",
    "vulgraad": 33,
    "adres": "Verdistraat   264",
    "fractieKleur": "GREY",
    "heeftSensor": true,
    "fractie": "Restafval"
  },
  {
    "nr": "201",
    "lat": "52.98826883",
    "lng": "6.56624395",
    "vulgraad": 27,
    "adres": "Vogelkerslaan  201",
    "fractieKleur": "GREY",
    "heeftSensor": true,
    "fractie": "Restafval"
  },
  {
    "nr": "266",
    "lat": "53.00197242",
    "lng": "6.56752009",
    "vulgraad": 42,
    "adres": "Vondellaan  266",
    "fractieKleur": "GREY",
    "heeftSensor": true,
    "fractie": "Restafval"
  },
  {
    "nr": "149",
    "lat": "53.00387647",
    "lng": "6.55676198",
    "vulgraad": 8,
    "adres": "Molenstraat  149",
    "fractieKleur": "GREY",
    "heeftSensor": true,
    "fractie": "Restafval"
  },
  {
    "nr": "218",
    "lat": "53.06589383",
    "lng": "6.65679784",
    "vulgraad": 42,
    "adres": "Mooi Zeegse 218",
    "fractieKleur": "GREY",
    "heeftSensor": true,
    "fractie": "Restafval"
  },
  {
    "nr": "172",
    "lat": "53.00726713",
    "lng": "6.55012754",
    "vulgraad": 40,
    "adres": "MR GR. v Prinsterln  172",
    "fractieKleur": "GREY",
    "heeftSensor": true,
    "fractie": "Restafval"
  },
  {
    "nr": "162",
    "lat": "53.00071645",
    "lng": "6.56112241",
    "vulgraad": 33,
    "adres": "Mr. P.J. Troelstralaan 38, 9402BJ Assen",
    "fractieKleur": "GREY",
    "heeftSensor": true,
    "fractie": "Restafval"
  },
  {
    "nr": "163",
    "lat": "53.00067029",
    "lng": "6.56188733",
    "vulgraad": 13,
    "adres": "MR P J Troelstralaan  163",
    "fractieKleur": "GREY",
    "heeftSensor": true,
    "fractie": "Restafval"
  },
  {
    "nr": "164",
    "lat": "53.00071306",
    "lng": "6.56364982",
    "vulgraad": 31,
    "adres": "MR P J Troelstralaan  164",
    "fractieKleur": "GREY",
    "heeftSensor": true,
    "fractie": "Restafval"
  },
  {
    "nr": "167",
    "lat": "52.99873607",
    "lng": "6.55424511",
    "vulgraad": 55,
    "adres": "MR P J Troelstralaan  167",
    "fractieKleur": "GREY",
    "heeftSensor": true,
    "fractie": "Restafval"
  },
  {
    "nr": "196",
    "lat": "52.99773233",
    "lng": "6.55368807",
    "vulgraad": 31,
    "adres": "Nobellaan 43, 9406AA Assen",
    "fractieKleur": "GREY",
    "heeftSensor": true,
    "fractie": "Restafval"
  },
  {
    "nr": "199",
    "lat": "52.99697262",
    "lng": "6.55245645",
    "vulgraad": 39,
    "adres": "Mr. P.J. Troelstralaan 199, 9402BG Assen",
    "fractieKleur": "GREY",
    "heeftSensor": true,
    "fractie": "Restafval"
  },
  {
    "nr": "163A",
    "lat": "53.00098881",
    "lng": "6.56236719",
    "vulgraad": 33,
    "adres": "Mr P J Troelstraln 163 A",
    "fractieKleur": "GREY",
    "heeftSensor": true,
    "fractie": "Restafval"
  },
  {
    "nr": "282",
    "lat": "52.99836847",
    "lng": "6.5535411",
    "vulgraad": 0,
    "adres": "Mr. P.J. Troelstralaan 144, 9402BM Assen",
    "fractieKleur": "GREY",
    "heeftSensor": true,
    "fractie": "Restafval"
  },
  {
    "nr": "168",
    "lat": "52.99834134",
    "lng": "6.55466553",
    "vulgraad": 100,
    "adres": "Nansenstraat 33D, 9402AJ Assen",
    "fractieKleur": "GREY",
    "heeftSensor": true,
    "fractie": "Restafval"
  },
  {
    "nr": "335",
    "lat": "52.98770282",
    "lng": "6.53692688",
    "vulgraad": 38,
    "adres": "Nicolaas Beetslaan",
    "fractieKleur": "GREY",
    "heeftSensor": true,
    "fractie": "Restafval"
  },
  {
    "nr": "263",
    "lat": "52.99608949",
    "lng": "6.56440428",
    "vulgraad": 44,
    "adres": "Rolderstraat  263",
    "fractieKleur": "GREY",
    "heeftSensor": true,
    "fractie": "Restafval"
  },
  {
    "nr": "107",
    "lat": "53.01671404",
    "lng": "6.5602635",
    "vulgraad": 48,
    "adres": "Scharmbarg  107",
    "fractieKleur": "GREY",
    "heeftSensor": true,
    "fractie": "Restafval"
  },
  {
    "nr": "104",
    "lat": "53.01675718",
    "lng": "6.58498036",
    "vulgraad": 45,
    "adres": "Schepelgoorn 104",
    "fractieKleur": "GREY",
    "heeftSensor": true,
    "fractie": "Restafval"
  },
  {
    "nr": "289",
    "lat": "53.00103926",
    "lng": "6.51518035",
    "vulgraad": 61,
    "adres": "Schoolstraat  289",
    "fractieKleur": "GREY",
    "heeftSensor": true,
    "fractie": "Restafval"
  },
  {
    "nr": "293",
    "lat": "53.00122941",
    "lng": "6.51391385",
    "vulgraad": 49,
    "adres": "Schoolstraat  293",
    "fractieKleur": "GREY",
    "heeftSensor": true,
    "fractie": "Restafval"
  },
  {
    "nr": "171",
    "lat": "53.00687502",
    "lng": "6.5516416",
    "vulgraad": 30,
    "adres": "Schultestraat   171",
    "fractieKleur": "GREY",
    "heeftSensor": true,
    "fractie": "Restafval"
  },
  {
    "nr": "170",
    "lat": "53.00773453",
    "lng": "6.55247747",
    "vulgraad": 41,
    "adres": "Schultestraat  170",
    "fractieKleur": "GREY",
    "heeftSensor": true,
    "fractie": "Restafval"
  },
  {
    "nr": "126",
    "lat": "52.98800795",
    "lng": "6.58217552",
    "vulgraad": 15,
    "adres": "Sleutelbloemstraat  126",
    "fractieKleur": "GREY",
    "heeftSensor": true,
    "fractie": "Restafval"
  },
  {
    "nr": "323",
    "lat": "52.99642339",
    "lng": "6.54023182",
    "vulgraad": 34,
    "adres": "Slingeborgh 323",
    "fractieKleur": "GREY",
    "heeftSensor": true,
    "fractie": "Restafval"
  },
  {
    "nr": "200",
    "lat": "52.99502322",
    "lng": "6.55118807",
    "vulgraad": 76,
    "adres": "Sluisstraat  200",
    "fractieKleur": "GREY",
    "heeftSensor": true,
    "fractie": "Restafval"
  },
  {
    "nr": "142",
    "lat": "53.01095994",
    "lng": "6.56613962",
    "vulgraad": 72,
    "adres": "Smetanalaan 142 ",
    "fractieKleur": "GREY",
    "heeftSensor": true,
    "fractie": "Restafval"
  },
  {
    "nr": "143",
    "lat": "53.0111542",
    "lng": "6.56480185",
    "vulgraad": 50,
    "adres": "Smetanalaan 143 ",
    "fractieKleur": "GREY",
    "heeftSensor": true,
    "fractie": "Restafval"
  },
  {
    "nr": "144",
    "lat": "53.01135598",
    "lng": "6.56346857",
    "vulgraad": 61,
    "adres": "Smetanalaan 144 ",
    "fractieKleur": "GREY",
    "heeftSensor": true,
    "fractie": "Restafval"
  },
  {
    "nr": "304",
    "lat": "53.01173312",
    "lng": "6.56272399",
    "vulgraad": 42,
    "adres": "Smetanalaan 304",
    "fractieKleur": "GREY",
    "heeftSensor": true,
    "fractie": "Restafval"
  },
  {
    "nr": "132",
    "lat": "52.99091023",
    "lng": "6.57128801",
    "vulgraad": 4,
    "adres": "Oosterparallelweg  132",
    "fractieKleur": "GREY",
    "heeftSensor": true,
    "fractie": "Restafval"
  },
  {
    "nr": "136",
    "lat": "52.9930882",
    "lng": "6.57572401",
    "vulgraad": 59,
    "adres": "Oosterpark  136",
    "fractieKleur": "GREY",
    "heeftSensor": true,
    "fractie": "Restafval"
  },
  {
    "nr": "137",
    "lat": "52.99354782",
    "lng": "6.57432555",
    "vulgraad": 57,
    "adres": "Oosterpark  137",
    "fractieKleur": "GREY",
    "heeftSensor": true,
    "fractie": "Restafval"
  },
  {
    "nr": "139",
    "lat": "52.9925387",
    "lng": "6.57545556",
    "vulgraad": 40,
    "adres": "Oosterpark  139",
    "fractieKleur": "GREY",
    "heeftSensor": true,
    "fractie": "Restafval"
  },
  {
    "nr": "233",
    "lat": "52.99428599",
    "lng": "6.56681791",
    "vulgraad": 27,
    "adres": "Oranjestraat 233",
    "fractieKleur": "GREY",
    "heeftSensor": true,
    "fractie": "Restafval"
  },
  {
    "nr": "205",
    "lat": "52.99153228",
    "lng": "6.56379597",
    "vulgraad": 20,
    "adres": "Oosterhoutstraat  205",
    "fractieKleur": "GREY",
    "heeftSensor": true,
    "fractie": "Restafval"
  },
  {
    "nr": "173",
    "lat": "53.00529452",
    "lng": "6.54696104",
    "vulgraad": 66,
    "adres": "Oostermoer  173",
    "fractieKleur": "GREY",
    "heeftSensor": true,
    "fractie": "Restafval"
  },
  {
    "nr": "174",
    "lat": "53.00458274",
    "lng": "6.54810903",
    "vulgraad": 19,
    "adres": "Oostermoer  174",
    "fractieKleur": "GREY",
    "heeftSensor": true,
    "fractie": "Restafval"
  },
  {
    "nr": "173A",
    "lat": "53.00490353",
    "lng": "6.54757661",
    "vulgraad": 14,
    "adres": "Oostermoer 173 A",
    "fractieKleur": "GREY",
    "heeftSensor": true,
    "fractie": "Restafval"
  },
  {
    "nr": "307",
    "lat": "52.99662071",
    "lng": "6.56728647",
    "vulgraad": 100,
    "adres": "Jan Fabriciusstraat  307",
    "fractieKleur": "GREY",
    "heeftSensor": true,
    "fractie": "Restafval"
  },
  {
    "nr": "232",
    "lat": "52.99534191",
    "lng": "6.56707882",
    "vulgraad": 43,
    "adres": "Javastraat  232",
    "fractieKleur": "GREY",
    "heeftSensor": true,
    "fractie": "Restafval"
  },
  {
    "nr": "232A",
    "lat": "52.995117",
    "lng": "6.56716734",
    "vulgraad": 9,
    "adres": "Javastraat 232 A ",
    "fractieKleur": "GREY",
    "heeftSensor": true,
    "fractie": "Restafval"
  },
  {
    "nr": "215",
    "lat": "52.99665942",
    "lng": "6.55736982",
    "vulgraad": 75,
    "adres": "Kanaalstraat  215",
    "fractieKleur": "GREY",
    "heeftSensor": true,
    "fractie": "Restafval"
  },
  {
    "nr": "216",
    "lat": "52.99701406",
    "lng": "6.55654626",
    "vulgraad": 82,
    "adres": "Kanaalstraat  216",
    "fractieKleur": "GREY",
    "heeftSensor": true,
    "fractie": "Restafval"
  },
  {
    "nr": "148",
    "lat": "53.00428211",
    "lng": "6.54984951",
    "vulgraad": 65,
    "adres": "Klenckestraat  148",
    "fractieKleur": "GREY",
    "heeftSensor": true,
    "fractie": "Restafval"
  },
  {
    "nr": "248",
    "lat": "53.01812465",
    "lng": "6.58542779",
    "vulgraad": 45,
    "adres": "Kleuvenstee \" Noord \" 248",
    "fractieKleur": "GREY",
    "heeftSensor": true,
    "fractie": "Restafval"
  },
  {
    "nr": "247",
    "lat": "53.01703299",
    "lng": "6.58608183",
    "vulgraad": 50,
    "adres": "Kleuvenstee \" Zuid \" 247",
    "fractieKleur": "GREY",
    "heeftSensor": true,
    "fractie": "Restafval"
  },
  {
    "nr": "103",
    "lat": "53.01740265",
    "lng": "6.5844059",
    "vulgraad": 64,
    "adres": "Kleuvenstee 103",
    "fractieKleur": "GREY",
    "heeftSensor": true,
    "fractie": "Restafval"
  },
  {
    "nr": "228",
    "lat": "52.99749572",
    "lng": "6.56559029",
    "vulgraad": 41,
    "adres": "Kloekhorststraat  228",
    "fractieKleur": "GREY",
    "heeftSensor": true,
    "fractie": "Restafval"
  },
  {
    "nr": "140",
    "lat": "52.9939762",
    "lng": "6.57264466",
    "vulgraad": 27,
    "adres": "Koekoekstraat  140",
    "fractieKleur": "GREY",
    "heeftSensor": true,
    "fractie": "Restafval"
  },
  {
    "nr": "219",
    "lat": "52.9977508",
    "lng": "6.5620807",
    "vulgraad": 47,
    "adres": "Korenmolen  219",
    "fractieKleur": "GREY",
    "heeftSensor": true,
    "fractie": "Restafval"
  },
  {
    "nr": "301",
    "lat": "52.994258",
    "lng": "6.56166877",
    "vulgraad": 50,
    "adres": "Kruisstraat  301",
    "fractieKleur": "GREY",
    "heeftSensor": true,
    "fractie": "Restafval"
  },
  {
    "nr": "251",
    "lat": "52.98533491",
    "lng": "6.57142282",
    "vulgraad": 8,
    "adres": "Lindelaan 251",
    "fractieKleur": "GREY",
    "heeftSensor": true,
    "fractie": "Restafval"
  },
  {
    "nr": "131",
    "lat": "52.98824972",
    "lng": "6.57208752",
    "vulgraad": 48,
    "adres": "Lod. Napoleonplein  131",
    "fractieKleur": "GREY",
    "heeftSensor": true,
    "fractie": "Restafval"
  },
  {
    "nr": "249",
    "lat": "53.01501599",
    "lng": "6.58022013",
    "vulgraad": 10,
    "adres": "Martin Luther Kingweg 68, 9403PW Assen",
    "fractieKleur": "GREY",
    "heeftSensor": true,
    "fractie": "Restafval"
  },
  {
    "nr": "180",
    "lat": "53.00077246",
    "lng": "6.5429181",
    "vulgraad": 23,
    "adres": "Maria in Campislaan  180",
    "fractieKleur": "GREY",
    "heeftSensor": true,
    "fractie": "Restafval"
  },
  {
    "nr": "181",
    "lat": "53.00054629",
    "lng": "6.54419422",
    "vulgraad": 25,
    "adres": "Maria in Campislaan  181",
    "fractieKleur": "GREY",
    "heeftSensor": true,
    "fractie": "Restafval"
  },
  {
    "nr": "182",
    "lat": "53.00052924",
    "lng": "6.54430585",
    "vulgraad": 25,
    "adres": "Maria in Campislaan  182",
    "fractieKleur": "GREY",
    "heeftSensor": true,
    "fractie": "Restafval"
  },
  {
    "nr": "243",
    "lat": "52.99368904",
    "lng": "6.55982811",
    "vulgraad": 48,
    "adres": "Markt  243",
    "fractieKleur": "GREY",
    "heeftSensor": true,
    "fractie": "Restafval"
  },
  {
    "nr": "300",
    "lat": "52.99388279",
    "lng": "6.5607351",
    "vulgraad": 65,
    "adres": "Marktstraat  300",
    "fractieKleur": "GREY",
    "heeftSensor": true,
    "fractie": "Restafval"
  },
  {
    "nr": "239",
    "lat": "53.00653656",
    "lng": "6.55682206",
    "vulgraad": 36,
    "adres": "Mensingestraat   239",
    "fractieKleur": "GREY",
    "heeftSensor": true,
    "fractie": "Restafval"
  },
  {
    "nr": "212",
    "lat": "52.99582025",
    "lng": "6.55796751",
    "vulgraad": 60,
    "adres": "Mercuriusplein 212",
    "fractieKleur": "GREY",
    "heeftSensor": true,
    "fractie": "Restafval"
  },
  {
    "nr": "297",
    "lat": "52.97652519",
    "lng": "6.56994004",
    "vulgraad": 87,
    "adres": "Middenweg  297",
    "fractieKleur": "GREY",
    "heeftSensor": true,
    "fractie": "Restafval"
  },
  {
    "nr": "298",
    "lat": "52.97611182",
    "lng": "6.56821855",
    "vulgraad": 54,
    "adres": "Middenweg  298",
    "fractieKleur": "GREY",
    "heeftSensor": true,
    "fractie": "Restafval"
  },
  {
    "nr": "316",
    "lat": "52.97711973",
    "lng": "6.57343297",
    "vulgraad": 37,
    "adres": "Middenweg 316",
    "fractieKleur": "GREY",
    "heeftSensor": true,
    "fractie": "Restafval"
  },
  {
    "nr": "317",
    "lat": "52.97901005",
    "lng": "6.56897642",
    "vulgraad": 57,
    "adres": "Middenweg 317",
    "fractieKleur": "GREY",
    "heeftSensor": true,
    "fractie": "Restafval"
  },
  {
    "nr": "238",
    "lat": "53.00646471",
    "lng": "6.55798263",
    "vulgraad": 57,
    "adres": "Molenstraat   238",
    "fractieKleur": "GREY",
    "heeftSensor": true,
    "fractie": "Restafval"
  },
  {
    "nr": "203",
    "lat": "52.98869658",
    "lng": "6.55915798",
    "vulgraad": 42,
    "adres": "Beilerstraat  203",
    "fractieKleur": "GREY",
    "heeftSensor": true,
    "fractie": "Restafval"
  },
  {
    "nr": "208",
    "lat": "52.99088303",
    "lng": "6.55471629",
    "vulgraad": 41,
    "adres": "Bellevue  208",
    "fractieKleur": "GREY",
    "heeftSensor": true,
    "fractie": "Restafval"
  },
  {
    "nr": "127",
    "lat": "52.98520223",
    "lng": "6.56973769",
    "vulgraad": 25,
    "adres": "Berkenstraat  127",
    "fractieKleur": "GREY",
    "heeftSensor": true,
    "fractie": "Restafval"
  },
  {
    "nr": "334",
    "lat": "52.99902566",
    "lng": "6.5600726",
    "vulgraad": 62,
    "adres": "Bernardstraat",
    "fractieKleur": "GREY",
    "heeftSensor": true,
    "fractie": "Restafval"
  },
  {
    "nr": "102",
    "lat": "53.01731",
    "lng": "6.583194",
    "vulgraad": 40,
    "adres": "Beunheugte 62, 9403HW Assen",
    "fractieKleur": "GREY",
    "heeftSensor": true,
    "fractie": "Restafval"
  },
  {
    "nr": "322",
    "lat": "53.01614443",
    "lng": "6.55707708",
    "vulgraad": 61,
    "adres": "Beuzeveen 322",
    "fractieKleur": "GREY",
    "heeftSensor": true,
    "fractie": "Restafval"
  },
  {
    "nr": "288",
    "lat": "53.00840185",
    "lng": "6.51340429",
    "vulgraad": 33,
    "adres": "Bosroos  288",
    "fractieKleur": "GREY",
    "heeftSensor": true,
    "fractie": "Restafval"
  },
  {
    "nr": "119",
    "lat": "52.98649116",
    "lng": "6.58271144",
    "vulgraad": 10,
    "adres": "Bremstraat  119",
    "fractieKleur": "GREY",
    "heeftSensor": true,
    "fractie": "Restafval"
  },
  {
    "nr": "299",
    "lat": "52.98909304",
    "lng": "6.57928289",
    "vulgraad": 9,
    "adres": "Bremstraat  299",
    "fractieKleur": "GREY",
    "heeftSensor": true,
    "fractie": "Restafval"
  },
  {
    "nr": "236",
    "lat": "52.99330648",
    "lng": "6.56302609",
    "vulgraad": 81,
    "adres": "Brink  236",
    "fractieKleur": "GREY",
    "heeftSensor": true,
    "fractie": "Restafval"
  },
  {
    "nr": "333",
    "lat": "52.98758839",
    "lng": "6.57777471",
    "vulgraad": 14,
    "adres": "Brunelstraat",
    "fractieKleur": "GREY",
    "heeftSensor": true,
    "fractie": "Restafval"
  },
  {
    "nr": "138",
    "lat": "52.993087",
    "lng": "6.57394054",
    "vulgraad": 33,
    "adres": "Buizerdstraat  138",
    "fractieKleur": "GREY",
    "heeftSensor": true,
    "fractie": "Restafval"
  },
  {
    "nr": "214",
    "lat": "52.99620498",
    "lng": "6.55558911",
    "vulgraad": 53,
    "adres": "Burg. Agterstraat  214",
    "fractieKleur": "GREY",
    "heeftSensor": true,
    "fractie": "Restafval"
  },
  {
    "nr": "217",
    "lat": "52.99757201",
    "lng": "6.5583196",
    "vulgraad": 34,
    "adres": "Burg. de Dreuplein  217",
    "fractieKleur": "GREY",
    "heeftSensor": true,
    "fractie": "Restafval"
  },
  {
    "nr": "151",
    "lat": "53.00325954",
    "lng": "6.56002355",
    "vulgraad": 36,
    "adres": "C van der Lindenstr  151 ",
    "fractieKleur": "GREY",
    "heeftSensor": true,
    "fractie": "Restafval"
  },
  {
    "nr": "225",
    "lat": "52.99670608",
    "lng": "6.56125692",
    "vulgraad": 64,
    "adres": "Cereshof  225",
    "fractieKleur": "GREY",
    "heeftSensor": true,
    "fractie": "Restafval"
  },
  {
    "nr": "242L",
    "lat": "52.99689657",
    "lng": "6.55912522",
    "vulgraad": 45,
    "adres": "Ceresplein \"Triade\"242",
    "fractieKleur": "GREY",
    "heeftSensor": true,
    "fractie": "Restafval"
  },
  {
    "nr": "256",
    "lat": "52.9946353",
    "lng": "6.56657548",
    "vulgraad": 62,
    "adres": "Doevekamp (gemeentehuis) 256",
    "fractieKleur": "GREY",
    "heeftSensor": true,
    "fractie": "Restafval"
  },
  {
    "nr": "231",
    "lat": "52.9956358",
    "lng": "6.56613365",
    "vulgraad": 100,
    "adres": "Doevenkamp  231",
    "fractieKleur": "GREY",
    "heeftSensor": true,
    "fractie": "Restafval"
  },
  {
    "nr": "120",
    "lat": "52.98697427",
    "lng": "6.58082244",
    "vulgraad": 76,
    "adres": "Dotterbloemstraat 120",
    "fractieKleur": "GREY",
    "heeftSensor": true,
    "fractie": "Restafval"
  },
  {
    "nr": "121",
    "lat": "52.98728619",
    "lng": "6.58053126",
    "vulgraad": 66,
    "adres": "Dotterbloemstraat 121",
    "fractieKleur": "GREY",
    "heeftSensor": true,
    "fractie": "Restafval"
  },
  {
    "nr": "122",
    "lat": "52.98758863",
    "lng": "6.57999741",
    "vulgraad": 68,
    "adres": "Dotterbloemstraat 122",
    "fractieKleur": "GREY",
    "heeftSensor": true,
    "fractie": "Restafval"
  },
  {
    "nr": "312",
    "lat": "52.99838026",
    "lng": "6.56757242",
    "vulgraad": 100,
    "adres": "Nijlandstraat (Brandweer) 312",
    "fractieKleur": "GREY",
    "heeftSensor": true,
    "fractie": "Restafval"
  },
  {
    "nr": "305",
    "lat": "52.9984376",
    "lng": "6.56893456",
    "vulgraad": 70,
    "adres": "Nijlandstraat 305",
    "fractieKleur": "GREY",
    "heeftSensor": true,
    "fractie": "Restafval"
  },
  {
    "nr": "169",
    "lat": "52.99781624",
    "lng": "6.55410015",
    "vulgraad": 62,
    "adres": "Nobellaan  169",
    "fractieKleur": "GREY",
    "heeftSensor": true,
    "fractie": "Restafval"
  },
  {
    "nr": "197",
    "lat": "52.99734531",
    "lng": "6.55472803",
    "vulgraad": 10,
    "adres": "Nobellaan  197",
    "fractieKleur": "GREY",
    "heeftSensor": true,
    "fractie": "Restafval"
  },
  {
    "nr": "292",
    "lat": "53.00795909",
    "lng": "6.55951557",
    "vulgraad": 51,
    "adres": "Obrechtlaan  292",
    "fractieKleur": "GREY",
    "heeftSensor": true,
    "fractie": "Restafval"
  },
  {
    "nr": "145",
    "lat": "53.0063033",
    "lng": "6.5530939",
    "vulgraad": 27,
    "adres": "Oldengaardestraat  145",
    "fractieKleur": "GREY",
    "heeftSensor": true,
    "fractie": "Restafval"
  },
  {
    "nr": "146",
    "lat": "53.00595866",
    "lng": "6.55446608",
    "vulgraad": 28,
    "adres": "Oldengaardestraat 146",
    "fractieKleur": "GREY",
    "heeftSensor": true,
    "fractie": "Restafval"
  },
  {
    "nr": "223",
    "lat": "52.99782935",
    "lng": "6.56358509",
    "vulgraad": 16,
    "adres": "Omloop  223",
    "fractieKleur": "GREY",
    "heeftSensor": true,
    "fractie": "Restafval"
  },
  {
    "nr": "224",
    "lat": "52.99795123",
    "lng": "6.56408056",
    "vulgraad": 70,
    "adres": "Omloop  224",
    "fractieKleur": "GREY",
    "heeftSensor": true,
    "fractie": "Restafval"
  },
  {
    "nr": "147",
    "lat": "53.00578406",
    "lng": "6.55599134",
    "vulgraad": 100,
    "adres": "Oosterbroekstraat  147",
    "fractieKleur": "GREY",
    "heeftSensor": true,
    "fractie": "Restafval"
  },
  {
    "nr": "240",
    "lat": "52.99522969",
    "lng": "6.56317489",
    "vulgraad": 0,
    "adres": "Gedempte Singel \"Iwema\" 240",
    "fractieKleur": "GREY",
    "heeftSensor": true,
    "fractie": "Restafval"
  },
  {
    "nr": "133",
    "lat": "52.9945061",
    "lng": "6.57987307",
    "vulgraad": 42,
    "adres": "Gerard Doustraat  133",
    "fractieKleur": "GREY",
    "heeftSensor": true,
    "fractie": "Restafval"
  },
  {
    "nr": "134",
    "lat": "52.99450713",
    "lng": "6.58071318",
    "vulgraad": 5,
    "adres": "Gerard Doustraat 134",
    "fractieKleur": "GREY",
    "heeftSensor": true,
    "fractie": "Restafval"
  },
  {
    "nr": "294",
    "lat": "53.00028472",
    "lng": "6.51205801",
    "vulgraad": 38,
    "adres": "Gildestraat  294",
    "fractieKleur": "GREY",
    "heeftSensor": true,
    "fractie": "Restafval"
  },
  {
    "nr": "183",
    "lat": "53.00094992",
    "lng": "6.53816695",
    "vulgraad": 70,
    "adres": "Gouwe  183",
    "fractieKleur": "GREY",
    "heeftSensor": true,
    "fractie": "Restafval"
  },
  {
    "nr": "184",
    "lat": "53.00028551",
    "lng": "6.53700257",
    "vulgraad": 21,
    "adres": "Gouwe  184",
    "fractieKleur": "GREY",
    "heeftSensor": true,
    "fractie": "Restafval"
  },
  {
    "nr": "185",
    "lat": "52.99962749",
    "lng": "6.53599842",
    "vulgraad": 71,
    "adres": "Gouwe  185",
    "fractieKleur": "GREY",
    "heeftSensor": true,
    "fractie": "Restafval"
  },
  {
    "nr": "108",
    "lat": "53.018529",
    "lng": "6.561727",
    "vulgraad": 81,
    "adres": "Gravenlanden 35, 9407JP Assen",
    "fractieKleur": "GREY",
    "heeftSensor": true,
    "fractie": "Restafval"
  },
  {
    "nr": "186",
    "lat": "52.99873585",
    "lng": "6.53518105",
    "vulgraad": 33,
    "adres": "Grift  186",
    "fractieKleur": "GREY",
    "heeftSensor": true,
    "fractie": "Restafval"
  },
  {
    "nr": "319",
    "lat": "52.99719978",
    "lng": "6.56433164",
    "vulgraad": 73,
    "adres": "Groningerstraat  Jongman 319",
    "fractieKleur": "GREY",
    "heeftSensor": true,
    "fractie": "Restafval"
  },
  {
    "nr": "320",
    "lat": "52.99802251",
    "lng": "6.56527586",
    "vulgraad": 67,
    "adres": "Groningerstraat 320",
    "fractieKleur": "GREY",
    "heeftSensor": true,
    "fractie": "Restafval"
  },
  {
    "nr": "337",
    "lat": "52.97503781",
    "lng": "6.56831577",
    "vulgraad": 41,
    "adres": "Hendrik van Boeijenlaan",
    "fractieKleur": "GREY",
    "heeftSensor": true,
    "fractie": "Restafval"
  },
  {
    "nr": "271",
    "lat": "52.997383",
    "lng": "6.574055",
    "vulgraad": 36,
    "adres": "Herman Broodstraat  271",
    "fractieKleur": "GREY",
    "heeftSensor": true,
    "fractie": "Restafval"
  },
  {
    "nr": "276",
    "lat": "52.99848937",
    "lng": "6.56010971",
    "vulgraad": 87,
    "adres": "Het  Kanaal  276",
    "fractieKleur": "GREY",
    "heeftSensor": true,
    "fractie": "Restafval"
  },
  {
    "nr": "221",
    "lat": "52.99896037",
    "lng": "6.56473828",
    "vulgraad": 76,
    "adres": "Het Kanaal  221",
    "fractieKleur": "GREY",
    "heeftSensor": true,
    "fractie": "Restafval"
  },
  {
    "nr": "230",
    "lat": "52.99866495",
    "lng": "6.56101931",
    "vulgraad": 20,
    "adres": "Het Kanaal  230",
    "fractieKleur": "GREY",
    "heeftSensor": true,
    "fractie": "Restafval"
  },
  {
    "nr": "275",
    "lat": "52.99985318",
    "lng": "6.56350209",
    "vulgraad": 27,
    "adres": "Het Kanaal / van Houtenstraat 275",
    "fractieKleur": "GREY",
    "heeftSensor": true,
    "fractie": "Restafval"
  },
  {
    "nr": "272",
    "lat": "52.9966459",
    "lng": "6.57720425",
    "vulgraad": 20,
    "adres": "Het Palet  272",
    "fractieKleur": "GREY",
    "heeftSensor": true,
    "fractie": "Restafval"
  },
  {
    "nr": "111",
    "lat": "52.98401704",
    "lng": "6.53446125",
    "vulgraad": 52,
    "adres": "Het Sticht  111",
    "fractieKleur": "GREY",
    "heeftSensor": true,
    "fractie": "Restafval"
  },
  {
    "nr": "157",
    "lat": "53.00080402",
    "lng": "6.55767274",
    "vulgraad": 64,
    "adres": "A F D Sav. Lohmanstr  157",
    "fractieKleur": "GREY",
    "heeftSensor": true,
    "fractie": "Restafval"
  },
  {
    "nr": "245",
    "lat": "53.003377",
    "lng": "6.513802",
    "vulgraad": 55,
    "adres": "Aardbeihof 1, 9408BK Assen",
    "fractieKleur": "GREY",
    "heeftSensor": true,
    "fractie": "Restafval"
  },
  {
    "nr": "328",
    "lat": "52.99622013",
    "lng": "6.56932551",
    "vulgraad": 48,
    "adres": "Abel Tasmanplein 127, 9401AZ Assen",
    "fractieKleur": "GREY",
    "heeftSensor": true,
    "fractie": "Restafval"
  },
  {
    "nr": "209",
    "lat": "52.99507038",
    "lng": "6.55711882",
    "vulgraad": 48,
    "adres": "Alteveerstraat 209",
    "fractieKleur": "GREY",
    "heeftSensor": true,
    "fractie": "Restafval"
  },
  {
    "nr": "310",
    "lat": "53.00830747",
    "lng": "6.54190788",
    "vulgraad": 74,
    "adres": "Amstelstraat  310",
    "fractieKleur": "GREY",
    "heeftSensor": true,
    "fractie": "Restafval"
  },
  {
    "nr": "109L",
    "lat": "53.00778837",
    "lng": "6.54120639",
    "vulgraad": 16,
    "adres": "Amstelstraat 109, 9406TC Assen",
    "fractieKleur": "GREY",
    "heeftSensor": true,
    "fractie": "Restafval"
  },
  {
    "nr": "109M",
    "lat": "53.00778837",
    "lng": "6.54120639",
    "vulgraad": 45,
    "adres": "Amstelstraat 109, 9406TC Assen",
    "fractieKleur": "GREY",
    "heeftSensor": true,
    "fractie": "Restafval"
  },
  {
    "nr": "129",
    "lat": "52.98700679",
    "lng": "6.57036596",
    "vulgraad": 41,
    "adres": "Anemoonstraat  129",
    "fractieKleur": "GREY",
    "heeftSensor": true,
    "fractie": "Restafval"
  },
  {
    "nr": "130",
    "lat": "52.98765",
    "lng": "6.570502",
    "vulgraad": 34,
    "adres": "Anemoonstraat  130",
    "fractieKleur": "GREY",
    "heeftSensor": true,
    "fractie": "Restafval"
  },
  {
    "nr": "278",
    "lat": "53.0000721",
    "lng": "6.56708175",
    "vulgraad": 12,
    "adres": "Anne de Vriesstraat  278",
    "fractieKleur": "GREY",
    "heeftSensor": true,
    "fractie": "Restafval"
  },
  {
    "nr": "128",
    "lat": "52.9861575",
    "lng": "6.57092345",
    "vulgraad": 64,
    "adres": "Anreperstraat  128",
    "fractieKleur": "GREY",
    "heeftSensor": true,
    "fractie": "Restafval"
  },
  {
    "nr": "338",
    "lat": "52.978072",
    "lng": "6.55753",
    "vulgraad": 36,
    "adres": "Beilerstraat",
    "fractieKleur": "GREY",
    "heeftSensor": true,
    "fractie": "Restafval"
  },
  {
    "nr": "152",
    "lat": "52.98439141",
    "lng": "6.56162839",
    "vulgraad": 76,
    "adres": "Beilerstraat  152",
    "fractieKleur": "GREY",
    "heeftSensor": true,
    "fractie": "Restafval"
  },
  {
    "nr": "123",
    "lat": "52.98792711",
    "lng": "6.57913549",
    "vulgraad": 20,
    "adres": "Dotterbloemstraat 123",
    "fractieKleur": "GREY",
    "heeftSensor": true,
    "fractie": "Restafval"
  },
  {
    "nr": "158",
    "lat": "53.00191023",
    "lng": "6.56271709",
    "vulgraad": 26,
    "adres": "DR A Kuyperstraat  158",
    "fractieKleur": "GREY",
    "heeftSensor": true,
    "fractie": "Restafval"
  },