[
  {
    "nr": "142",
    "lat": "53.01095994",
    "lng": "6.56613962",
    "vulgraad": 61,
    "adres": "Smetanalaan 142 ",
    "fractieKleur": "GREY",
    "heeftSensor": true,
    "fractie": "Restafval"
  },
  {
    "nr": "200",
    "lat": "52.99502322",
    "lng": "6.55118807",
    "vulgraad": 5,
    "adres": "Sluisstraat  200",
    "fractieKleur": "GREY",
    "heeftSensor": true,
    "fractie": "Restafval"
  },
  {
    "nr": "143",
    "lat": "53.0111542",
    "lng": "6.56480185",
    "vulgraad": 5,
    "adres": "Smetanalaan 143 ",
    "fractieKleur": "GREY",
    "heeftSensor": true,
    "fractie": "Restafval"
  },
  {
    "nr": "126",
    "lat": "52.98800795",
    "lng": "6.58217552",
    "vulgraad": 66,
    "adres": "Sleutelbloemstraat  126",
    "fractieKleur": "GREY",
    "heeftSensor": true,
    "fractie": "Restafval"
  },
  {
    "nr": "323",
    "lat": "52.99642339",
    "lng": "6.54023182",
    "vulgraad": 30,
    "adres": "Slingeborgh 323",
    "fractieKleur": "GREY",
    "heeftSensor": true,
    "fractie": "Restafval"
  },
  {
    "nr": "171",
    "lat": "53.00687502",
    "lng": "6.5516416",
    "vulgraad": 5,
    "adres": "Schultestraat   171",
    "fractieKleur": "GREY",
    "heeftSensor": true,
    "fractie": "Restafval"
  },
  {
    "nr": "170",
    "lat": "53.00773453",
    "lng": "6.55247747",
    "vulgraad": 4,
    "adres": "Schultestraat  170",
    "fractieKleur": "GREY",
    "heeftSensor": true,
    "fractie": "Restafval"
  },
  {
    "nr": "289",
    "lat": "53.00103926",
    "lng": "6.51518035",
    "vulgraad": 73,
    "adres": "Schoolstraat  289",
    "fractieKleur": "GREY",
    "heeftSensor": true,
    "fractie": "Restafval"
  },
  {
    "nr": "293",
    "lat": "53.00122941",
    "lng": "6.51391385",
    "vulgraad": 65,
    "adres": "Schoolstraat  293",
    "fractieKleur": "GREY",
    "heeftSensor": true,
    "fractie": "Restafval"
  },
  {
    "nr": "222",
    "lat": "52.99813748",
    "lng": "6.56279122",
    "vulgraad": 33,
    "adres": "Oude molenstraat  222",
    "fractieKleur": "GREY",
    "heeftSensor": true,
    "fractie": "Restafval"
  },
  {
    "nr": "254",
    "lat": "52.98873405",
    "lng": "6.5677846",
    "vulgraad": 5,
    "adres": "Overcingellaan   254",
    "fractieKleur": "GREY",
    "heeftSensor": true,
    "fractie": "Restafval"
  },
  {
    "nr": "233",
    "lat": "52.99428599",
    "lng": "6.56681791",
    "vulgraad": 18,
    "adres": "Oranjestraat 233",
    "fractieKleur": "GREY",
    "heeftSensor": true,
    "fractie": "Restafval"
  },
  {
    "nr": "234A",
    "lat": "52.994049",
    "lng": "6.569276",
    "vulgraad": 98,
    "adres": "Oranjestraat 234 A",
    "fractieKleur": "GREY",
    "heeftSensor": true,
    "fractie": "Restafval"
  },
  {
    "nr": "234",
    "lat": "52.99417331",
    "lng": "6.56837881",
    "vulgraad": 23,
    "adres": "Oranjestraat 234",
    "fractieKleur": "GREY",
    "heeftSensor": true,
    "fractie": "Restafval"
  },
  {
    "nr": "137",
    "lat": "52.99354782",
    "lng": "6.57432555",
    "vulgraad": 6,
    "adres": "Oosterpark  137",
    "fractieKleur": "GREY",
    "heeftSensor": true,
    "fractie": "Restafval"
  },
  {
    "nr": "139",
    "lat": "52.9925387",
    "lng": "6.57545556",
    "vulgraad": 10,
    "adres": "Oosterpark  139",
    "fractieKleur": "GREY",
    "heeftSensor": true,
    "fractie": "Restafval"
  },
  {
    "nr": "132",
    "lat": "52.99091023",
    "lng": "6.57128801",
    "vulgraad": 15,
    "adres": "Oosterparallelweg  132",
    "fractieKleur": "GREY",
    "heeftSensor": true,
    "fractie": "Restafval"
  },
  {
    "nr": "144",
    "lat": "53.01135598",
    "lng": "6.56346857",
    "vulgraad": 4,
    "adres": "Smetanalaan 144 ",
    "fractieKleur": "GREY",
    "heeftSensor": true,
    "fractie": "Restafval"
  },
  {
    "nr": "136",
    "lat": "52.9930882",
    "lng": "6.57572401",
    "vulgraad": 43,
    "adres": "Oosterpark  136",
    "fractieKleur": "GREY",
    "heeftSensor": true,
    "fractie": "Restafval"
  },
  {
    "nr": "269",
    "lat": "53.00160304",
    "lng": "6.56675293",
    "vulgraad": 2,
    "adres": "Huygenstraat  269",
    "fractieKleur": "GREY",
    "heeftSensor": true,
    "fractie": "Restafval"
  },
  {
    "nr": "270",
    "lat": "53.00068836",
    "lng": "6.56689656",
    "vulgraad": 6,
    "adres": "Huygenstraat  270",
    "fractieKleur": "GREY",
    "heeftSensor": true,
    "fractie": "Restafval"
  },
  {
    "nr": "325",
    "lat": "53.02129797",
    "lng": "6.57340679",
    "vulgraad": 33,
    "adres": "Hoekbree 325",
    "fractieKleur": "GREY",
    "heeftSensor": true,
    "fractie": "Restafval"
  },
  {
    "nr": "107",
    "lat": "53.01671404",
    "lng": "6.5602635",
    "vulgraad": 56,
    "adres": "Scharmbarg  107",
    "fractieKleur": "GREY",
    "heeftSensor": true,
    "fractie": "Restafval"
  },
  {
    "nr": "104",
    "lat": "53.01675718",
    "lng": "6.58498036",
    "vulgraad": 63,
    "adres": "Schepelgoorn 104",
    "fractieKleur": "GREY",
    "heeftSensor": true,
    "fractie": "Restafval"
  },
  {
    "nr": "306",
    "lat": "52.99660456",
    "lng": "6.56727843",
    "vulgraad": 26,
    "adres": "Jan Fabriciusstraat  306",
    "fractieKleur": "GREY",
    "heeftSensor": true,
    "fractie": "Restafval"
  },
  {
    "nr": "263",
    "lat": "52.99608949",
    "lng": "6.56440428",
    "vulgraad": 11,
    "adres": "Rolderstraat  263",
    "fractieKleur": "GREY",
    "heeftSensor": true,
    "fractie": "Restafval"
  },
  {
    "nr": "227",
    "lat": "52.99800773",
    "lng": "6.56714577",
    "vulgraad": 4,
    "adres": "Jan Fabriciusstraat  227",
    "fractieKleur": "GREY",
    "heeftSensor": true,
    "fractie": "Restafval"
  },
  {
    "nr": "156",
    "lat": "53.00107612",
    "lng": "6.55617957",
    "vulgraad": 56,
    "adres": "J.H.A. Schaperstraat  156",
    "fractieKleur": "GREY",
    "heeftSensor": true,
    "fractie": "Restafval"
  },
  {
    "nr": "226",
    "lat": "52.99863378",
    "lng": "6.56698043",
    "vulgraad": 46,
    "adres": "Jan Fabriciusstraat  226",
    "fractieKleur": "GREY",
    "heeftSensor": true,
    "fractie": "Restafval"
  },
  {
    "nr": "264",
    "lat": "53.00931715",
    "lng": "6.56289735",
    "vulgraad": 48,
    "adres": "Verdistraat   264",
    "fractieKleur": "GREY",
    "heeftSensor": true,
    "fractie": "Restafval"
  },
  {
    "nr": "266",
    "lat": "53.00197242",
    "lng": "6.56752009",
    "vulgraad": 0,
    "adres": "Vondellaan  266",
    "fractieKleur": "GREY",
    "heeftSensor": true,
    "fractie": "Restafval"
  },
  {
    "nr": "201",
    "lat": "52.98826883",
    "lng": "6.56624395",
    "vulgraad": 33,
    "adres": "Vogelkerslaan  201",
    "fractieKleur": "GREY",
    "heeftSensor": true,
    "fractie": "Restafval"
  },
  {
    "nr": "314",
    "lat": "52.99861255",
    "lng": "6.54946687",
    "vulgraad": 5,
    "adres": "Van Heuven Goedhartlaan 314",
    "fractieKleur": "GREY",
    "heeftSensor": true,
    "fractie": "Restafval"
  },
  {
    "nr": "336",
    "lat": "52.99822014",
    "lng": "6.56993358",
    "vulgraad": 15,
    "adres": "Veemarktstraat",
    "fractieKleur": "GREY",
    "heeftSensor": true,
    "fractie": "Restafval"
  },
  {
    "nr": "193",
    "lat": "52.99856252",
    "lng": "6.54787468",
    "vulgraad": 75,
    "adres": "Van Heuveng \"Wijde Blik\"  193",
    "fractieKleur": "GREY",
    "heeftSensor": true,
    "fractie": "Restafval"
  },
  {
    "nr": "286",
    "lat": "52.99371672",
    "lng": "6.5549569",
    "vulgraad": 58,
    "adres": "Vaart ZZ  286",
    "fractieKleur": "GREY",
    "heeftSensor": true,
    "fractie": "Restafval"
  },
  {
    "nr": "179",
    "lat": "53.00194031",
    "lng": "6.54135629",
    "vulgraad": 3,
    "adres": "Van der Scheerstraat  179",
    "fractieKleur": "GREY",
    "heeftSensor": true,
    "fractie": "Restafval"
  },
  {
    "nr": "210",
    "lat": "52.99404522",
    "lng": "6.55321543",
    "vulgraad": 11,
    "adres": "Vaart NZ  210",
    "fractieKleur": "GREY",
    "heeftSensor": true,
    "fractie": "Restafval"
  },
  {
    "nr": "274",
    "lat": "52.994614",
    "lng": "6.54934044",
    "vulgraad": 29,
    "adres": "Vaart N.Z.  274",
    "fractieKleur": "GREY",
    "heeftSensor": true,
    "fractie": "Restafval"
  },
  {
    "nr": "285",
    "lat": "52.99365417",
    "lng": "6.55698378",
    "vulgraad": 20,
    "adres": "Vaart ZZ  285",
    "fractieKleur": "GREY",
    "heeftSensor": true,
    "fractie": "Restafval"
  },
  {
    "nr": "106",
    "lat": "53.01631268",
    "lng": "6.5594119",
    "vulgraad": 11,
    "adres": "Walakker 106",
    "fractieKleur": "GREY",
    "heeftSensor": true,
    "fractie": "Restafval"
  },
  {
    "nr": "302",
    "lat": "52.99466501",
    "lng": "6.56012136",
    "vulgraad": 2,
    "adres": "Weiersloop  302",
    "fractieKleur": "GREY",
    "heeftSensor": true,
    "fractie": "Restafval"
  },
  {
    "nr": "321",
    "lat": "52.98808512",
    "lng": "6.5848685",
    "vulgraad": 54,
    "adres": "Vredeveldseweg 321",
    "fractieKleur": "GREY",
    "heeftSensor": true,
    "fractie": "Restafval"
  },
  {
    "nr": "324",
    "lat": "53.00518723",
    "lng": "6.57417847",
    "vulgraad": 86,
    "adres": "W.A. Scholtenstraat 324",
    "fractieKleur": "GREY",
    "heeftSensor": true,
    "fractie": "Restafval"
  },
  {
    "nr": "125",
    "lat": "52.98864019",
    "lng": "6.58186917",
    "vulgraad": 53,
    "adres": "Vredeveldseweg  125",
    "fractieKleur": "GREY",
    "heeftSensor": true,
    "fractie": "Restafval"
  },
  {
    "nr": "291",
    "lat": "52.98885582",
    "lng": "6.58149284",
    "vulgraad": 35,
    "adres": "Vredeveldseweg  291",
    "fractieKleur": "GREY",
    "heeftSensor": true,
    "fractie": "Restafval"
  },
  {
    "nr": "267",
    "lat": "53.00178407",
    "lng": "6.56892308",
    "vulgraad": 64,
    "adres": "Vondellaan  267",
    "fractieKleur": "GREY",
    "heeftSensor": true,
    "fractie": "Restafval"
  },
  {
    "nr": "332",
    "lat": "52.98970909",
    "lng": "6.58006839",
    "vulgraad": 0,
    "adres": "Vredeveldseweg",
    "fractieKleur": "GREY",
    "heeftSensor": true,
    "fractie": "Restafval"
  },
  {
    "nr": "268",
    "lat": "53.0009918",
    "lng": "6.56907785",
    "vulgraad": 66,
    "adres": "Vondellaan  268",
    "fractieKleur": "GREY",
    "heeftSensor": true,
    "fractie": "Restafval"
  },
  {
    "nr": "279",
    "lat": "52.98975535",
    "lng": "6.58231262",
    "vulgraad": 17,
    "adres": "Platolaan   279",
    "fractieKleur": "GREY",
    "heeftSensor": true,
    "fractie": "Restafval"
  },
  {
    "nr": "260",
    "lat": "52.98976495",
    "lng": "6.56160244",
    "vulgraad": 76,
    "adres": "Prins Claus Plantsoen  260",
    "fractieKleur": "GREY",
    "heeftSensor": true,
    "fractie": "Restafval"
  },
  {
    "nr": "259",
    "lat": "53.00459621",
    "lng": "6.5154716",
    "vulgraad": 19,
    "adres": "Perzikstraat 72, 9408BS Assen",
    "fractieKleur": "GREY",
    "heeftSensor": true,
    "fractie": "Restafval"
  },
  {
    "nr": "110",
    "lat": "52.99359336",
    "lng": "6.5126958",
    "vulgraad": 86,
    "adres": "Planetenlaan  110",
    "fractieKleur": "GREY",
    "heeftSensor": true,
    "fractie": "Restafval"
  },
  {
    "nr": "202",
    "lat": "52.988563",
    "lng": "6.565346",
    "vulgraad": 64,
    "adres": "Parkplein  202",
    "fractieKleur": "GREY",
    "heeftSensor": true,
    "fractie": "Restafval"
  },
  {
    "nr": "258",
    "lat": "53.0038146",
    "lng": "6.51706394",
    "vulgraad": 50,
    "adres": "Perzikstraat  258",
    "fractieKleur": "GREY",
    "heeftSensor": true,
    "fractie": "Restafval"
  },
  {
    "nr": "253",
    "lat": "52.98881047",
    "lng": "6.57448083",
    "vulgraad": 59,
    "adres": "Pelikaanstraat 253",
    "fractieKleur": "GREY",
    "heeftSensor": true,
    "fractie": "Restafval"
  },
  {
    "nr": "255",
    "lat": "53.0131648",
    "lng": "6.58875668",
    "vulgraad": 18,
    "adres": "Overstoep  255",
    "fractieKleur": "GREY",
    "heeftSensor": true,
    "fractie": "Restafval"
  },
  {
    "nr": "265",
    "lat": "53.01012565",
    "lng": "6.56408875",
    "vulgraad": 58,
    "adres": "Paganinilaan  265",
    "fractieKleur": "GREY",
    "heeftSensor": true,
    "fractie": "Restafval"
  },
  {
    "nr": "250",
    "lat": "52.98959093",
    "lng": "6.57724168",
    "vulgraad": 79,
    "adres": "Tuinstraat 250",
    "fractieKleur": "GREY",
    "heeftSensor": true,
    "fractie": "Restafval"
  },
  {
    "nr": "318",
    "lat": "52.99277464",
    "lng": "6.55837719",
    "vulgraad": 16,
    "adres": "Ulohof 318",
    "fractieKleur": "GREY",
    "heeftSensor": true,
    "fractie": "Restafval"
  },
  {
    "nr": "262",
    "lat": "53.01051466",
    "lng": "6.54547475",
    "vulgraad": 70,
    "adres": "Rijnstraat   262",
    "fractieKleur": "GREY",
    "heeftSensor": true,
    "fractie": "Restafval"
  },
  {
    "nr": "295",
    "lat": "52.99968333",
    "lng": "6.51599583",
    "vulgraad": 78,
    "adres": "Traverse  295",
    "fractieKleur": "GREY",
    "heeftSensor": true,
    "fractie": "Restafval"
  },
  {
    "nr": "330",
    "lat": "52.99545689",
    "lng": "6.57517925",
    "vulgraad": 37,
    "adres": "Rembrandtlaan 330",
    "fractieKleur": "GREY",
    "heeftSensor": true,
    "fractie": "Restafval"
  },
  {
    "nr": "252",
    "lat": "52.9899483",
    "lng": "6.57452791",
    "vulgraad": 42,
    "adres": "Resedastraat 252",
    "fractieKleur": "GREY",
    "heeftSensor": true,
    "fractie": "Restafval"
  },
  {
    "nr": "204",
    "lat": "52.99126061",
    "lng": "6.56252583",
    "vulgraad": 27,
    "adres": "Prinses Beatrixstraat",
    "fractieKleur": "GREY",
    "heeftSensor": true,
    "fractie": "Restafval"
  },
  {
    "nr": "175",
    "lat": "53.00206679",
    "lng": "6.54702031",
    "vulgraad": 32,
    "adres": "Rabenhauptstraat  175",
    "fractieKleur": "GREY",
    "heeftSensor": true,
    "fractie": "Restafval"
  },
  {
    "nr": "128",
    "lat": "52.9861575",
    "lng": "6.57092345",
    "vulgraad": 9,
    "adres": "Anreperstraat  128",
    "fractieKleur": "GREY",
    "heeftSensor": true,
    "fractie": "Restafval"
  },
  {
    "nr": "278",
    "lat": "53.0000721",
    "lng": "6.56708175",
    "vulgraad": 36,
    "adres": "Anne de Vriesstraat  278",
    "fractieKleur": "GREY",
    "heeftSensor": true,
    "fractie": "Restafval"
  },
  {
    "nr": "941",
    "lat": "53.017357",
    "lng": "6.572745",
    "vulgraad": 0,
    "adres": "Martin Luther Kingweg 941",
    "fractieKleur": "SKYBLUE",
    "heeftSensor": true,
    "fractie": "Glas"
  },
  {
    "nr": "152",
    "lat": "52.98439141",
    "lng": "6.56162839",
    "vulgraad": 8,
    "adres": "Beilerstraat  152",
    "fractieKleur": "GREY",
    "heeftSensor": true,
    "fractie": "Restafval"
  },
  {
    "nr": "338",
    "lat": "52.978072",
    "lng": "6.55753",
    "vulgraad": 46,
    "adres": "Beilerstraat",
    "fractieKleur": "GREY",
    "heeftSensor": true,
    "fractie": "Restafval"
  },
  {
    "nr": "942",
    "lat": "53.017357",
    "lng": "6.572745",
    "vulgraad": 0,
    "adres": "Martin Luther Kingweg 942",
    "fractieKleur": "SKYBLUE",
    "heeftSensor": true,
    "fractie": "Glas"
  },
  {
    "nr": "109M",
    "lat": "53.00778837",
    "lng": "6.54120639",
    "vulgraad": 85,
    "adres": "Amstelstraat 109, 9406TC Assen",
    "fractieKleur": "GREY",
    "heeftSensor": true,
    "fractie": "Restafval"
  },
  {
    "nr": "939",
    "lat": "52.985411",
    "lng": "6.562115",
    "vulgraad": 0,
    "adres": "Beilerstraat 939",
    "fractieKleur": "SKYBLUE",
    "heeftSensor": true,
    "fractie": "Glas"
  },
  {
    "nr": "109L",
    "lat": "53.00778837",
    "lng": "6.54120639",
    "vulgraad": 5,
    "adres": "Amstelstraat 109, 9406TC Assen",
    "fractieKleur": "GREY",
    "heeftSensor": true,
    "fractie": "Restafval"
  },
  {
    "nr": "938",
    "lat": "52.994822",
    "lng": "6.559292",
    "vulgraad": 0,
    "adres": "Weierstraat 938",
    "fractieKleur": "SKYBLUE",
    "heeftSensor": true,
    "fractie": "Glas"
  },
  {
    "nr": "130",
    "lat": "52.98765",
    "lng": "6.570502",
    "vulgraad": 74,
    "adres": "Anemoonstraat  130",
    "fractieKleur": "GREY",
    "heeftSensor": true,
    "fractie": "Restafval"
  },
  {
    "nr": "129",
    "lat": "52.98700679",
    "lng": "6.57036596",
    "vulgraad": 27,
    "adres": "Anemoonstraat  129",
    "fractieKleur": "GREY",
    "heeftSensor": true,
    "fractie": "Restafval"
  },
  {
    "nr": "940",
    "lat": "52.985411",
    "lng": "6.562115",
    "vulgraad": 0,
    "adres": "Beilerstraat 940",
    "fractieKleur": "SKYBLUE",
    "heeftSensor": true,
    "fractie": "Glas"
  },
  {
    "nr": "328",
    "lat": "52.99622013",
    "lng": "6.56932551",
    "vulgraad": 0,
    "adres": "Abel Tasmanplein 127, 9401AZ Assen",
    "fractieKleur": "GREY",
    "heeftSensor": true,
    "fractie": "Restafval"
  },
  {
    "nr": "245",
    "lat": "53.003377",
    "lng": "6.513802",
    "vulgraad": 37,
    "adres": "Aardbeihof 1, 9408BK Assen",
    "fractieKleur": "GREY",
    "heeftSensor": true,
    "fractie": "Restafval"
  },
  {
    "nr": "936",
    "lat": "52.97045",
    "lng": "6.56922",
    "vulgraad": 0,
    "adres": "Diepstroeten 936",
    "fractieKleur": "SKYBLUE",
    "heeftSensor": true,
    "fractie": "Glas"
  },
  {
    "nr": "310",
    "lat": "53.00830747",
    "lng": "6.54190788",
    "vulgraad": 64,
    "adres": "Amstelstraat  310",
    "fractieKleur": "GREY",
    "heeftSensor": true,
    "fractie": "Restafval"
  },
  {
    "nr": "209",
    "lat": "52.99507038",
    "lng": "6.55711882",
    "vulgraad": 32,
    "adres": "Alteveerstraat 209",
    "fractieKleur": "GREY",
    "heeftSensor": true,
    "fractie": "Restafval"
  },
  {
    "nr": "937",
    "lat": "52.994822",
    "lng": "6.559292",
    "vulgraad": 0,
    "adres": "Weierstraat 937",
    "fractieKleur": "SKYBLUE",
    "heeftSensor": true,
    "fractie": "Glas"
  },
  {
    "nr": "249",
    "lat": "53.01501599",
    "lng": "6.58022013",
    "vulgraad": 36,
    "adres": "Martin Luther Kingweg 68, 9403PW Assen",
    "fractieKleur": "GREY",
    "heeftSensor": true,
    "fractie": "Restafval"
  },
  {
    "nr": "131",
    "lat": "52.98824972",
    "lng": "6.57208752",
    "vulgraad": 49,
    "adres": "Lod. Napoleonplein  131",
    "fractieKleur": "GREY",
    "heeftSensor": true,
    "fractie": "Restafval"
  },
  {
    "nr": "934",
    "lat": "52.998433",
    "lng": "6.554481",
    "vulgraad": 0,
    "adres": "Nansenstraat 54, 9402AM Assen",
    "fractieKleur": "SKYBLUE",
    "heeftSensor": true,
    "fractie": "Glas"
  },
  {
    "nr": "157",
    "lat": "53.00080402",
    "lng": "6.55767274",
    "vulgraad": 85,
    "adres": "A F D Sav. Lohmanstr  157",
    "fractieKleur": "GREY",
    "heeftSensor": true,
    "fractie": "Restafval"
  },
  {
    "nr": "180",
    "lat": "53.00077246",
    "lng": "6.5429181",
    "vulgraad": 23,
    "adres": "Maria in Campislaan  180",
    "fractieKleur": "GREY",
    "heeftSensor": true,
    "fractie": "Restafval"
  },
  {
    "nr": "935",
    "lat": "52.97045",
    "lng": "6.56922",
    "vulgraad": 0,
    "adres": "Diepstroeten 935",
    "fractieKleur": "SKYBLUE",
    "heeftSensor": true,
    "fractie": "Glas"
  },
  {
    "nr": "217",
    "lat": "52.99757201",
    "lng": "6.5583196",
    "vulgraad": 45,
    "adres": "Burg. de Dreuplein  217",
    "fractieKleur": "GREY",
    "heeftSensor": true,
    "fractie": "Restafval"
  },
  {
    "nr": "214",
    "lat": "52.99620498",
    "lng": "6.55558911",
    "vulgraad": 45,
    "adres": "Burg. Agterstraat  214",
    "fractieKleur": "GREY",
    "heeftSensor": true,
    "fractie": "Restafval"
  },
  {
    "nr": "225",
    "lat": "52.99670608",
    "lng": "6.56125692",
    "vulgraad": 77,
    "adres": "Cereshof  225",
    "fractieKleur": "GREY",
    "heeftSensor": true,
    "fractie": "Restafval"
  },
  {
    "nr": "151",
    "lat": "53.00325954",
    "lng": "6.56002355",
    "vulgraad": 62,
    "adres": "C van der Lindenstr  151 ",
    "fractieKleur": "GREY",
    "heeftSensor": true,
    "fractie": "Restafval"
  },
  {
    "nr": "919",
    "lat": "52.999488",
    "lng": "6.513209",
    "vulgraad": 0,
    "adres": "Zuiderpoort 919",
    "fractieKleur": "SKYBLUE",
    "heeftSensor": false,
    "fractie": "Glas"
  },
  {
    "nr": "236",
    "lat": "52.99330648",
    "lng": "6.56302609",
    "vulgraad": 57,
    "adres": "Brink  236",
    "fractieKleur": "GREY",
    "heeftSensor": true,
    "fractie": "Restafval"
  },
  {
    "nr": "299",
    "lat": "52.98909304",
    "lng": "6.57928289",
    "vulgraad": 31,
    "adres": "Bremstraat  299",
    "fractieKleur": "GREY",
    "heeftSensor": true,
    "fractie": "Restafval"
  },
  {
    "nr": "138",
    "lat": "52.993087",
    "lng": "6.57394054",
    "vulgraad": 8,
    "adres": "Buizerdstraat  138",
    "fractieKleur": "GREY",
    "heeftSensor": true,
    "fractie": "Restafval"
  },
  {
    "nr": "333",
    "lat": "52.98758839",
    "lng": "6.57777471",
    "vulgraad": 46,
    "adres": "Brunelstraat",
    "fractieKleur": "GREY",
    "heeftSensor": true,
    "fractie": "Restafval"
  },
  {
    "nr": "322",
    "lat": "53.01614443",
    "lng": "6.55707708",
    "vulgraad": 76,
    "adres": "Beuzeveen 322",
    "fractieKleur": "GREY",
    "heeftSensor": true,
    "fractie": "Restafval"
  },
  {
    "nr": "102",
    "lat": "53.01731",
    "lng": "6.583194",
    "vulgraad": 21,
    "adres": "Beunheugte 62, 9403HW Assen",
    "fractieKleur": "GREY",
    "heeftSensor": true,
    "fractie": "Restafval"
  },
  {
    "nr": "119",
    "lat": "52.98649116",
    "lng": "6.58271144",
    "vulgraad": 44,
    "adres": "Bremstraat  119",
    "fractieKleur": "GREY",
    "heeftSensor": true,
    "fractie": "Restafval"
  },
  {
    "nr": "288",
    "lat": "53.00840185",
    "lng": "6.51340429",
    "vulgraad": 47,
    "adres": "Bosroos  288",
    "fractieKleur": "GREY",
    "heeftSensor": true,
    "fractie": "Restafval"
  },
  {
    "nr": "208",
    "lat": "52.99088303",
    "lng": "6.55471629",
    "vulgraad": 68,
    "adres": "Bellevue  208",
    "fractieKleur": "GREY",
    "heeftSensor": true,
    "fractie": "Restafval"
  },
  {
    "nr": "203",
    "lat": "52.98869658",
    "lng": "6.55915798",
    "vulgraad": 74,
    "adres": "Beilerstraat  203",
    "fractieKleur": "GREY",
    "heeftSensor": true,
    "fractie": "Restafval"
  },
  {
    "nr": "943",
    "lat": "52.993742",
    "lng": "6.559683",
    "vulgraad": 0,
    "adres": "Markt 943",
    "fractieKleur": "SKYBLUE",
    "heeftSensor": true,
    "fractie": "Glas"
  },
  {
    "nr": "334",
    "lat": "52.99902566",
    "lng": "6.5600726",
    "vulgraad": 32,
    "adres": "Bernardstraat",
    "fractieKleur": "GREY",
    "heeftSensor": true,
    "fractie": "Restafval"
  },
  {
    "nr": "127",
    "lat": "52.98520223",
    "lng": "6.56973769",
    "vulgraad": 58,
    "adres": "Berkenstraat  127",
    "fractieKleur": "GREY",
    "heeftSensor": true,
    "fractie": "Restafval"
  },
  {
    "nr": "960",
    "lat": "53.00473877",
    "lng": "6.59151794",
    "vulgraad": 0,
    "adres": "Milieupark 960",
    "fractieKleur": "SKYBLUE",
    "heeftSensor": true,
    "fractie": "Glas"
  },
  {
    "nr": "924",
    "lat": "52.983767",
    "lng": "6.535276",
    "vulgraad": 0,
    "adres": "Het Sticht 924",
    "fractieKleur": "SKYBLUE",
    "heeftSensor": true,
    "fractie": "Glas"
  },
  {
    "nr": "925",
    "lat": "52.986631",
    "lng": "6.531406",
    "vulgraad": 0,
    "adres": "Westergoo 925",
    "fractieKleur": "SKYBLUE",
    "heeftSensor": true,
    "fractie": "Glas"
  },
  {
    "nr": "921",
    "lat": "53.000204",
    "lng": "6.548704",
    "vulgraad": 0,
    "adres": "Nobellaan 921",
    "fractieKleur": "SKYBLUE",
    "heeftSensor": false,
    "fractie": "Glas"
  },
  {
    "nr": "923",
    "lat": "52.983767",
    "lng": "6.535276",
    "vulgraad": 0,
    "adres": " Het Sticht 923",
    "fractieKleur": "SKYBLUE",
    "heeftSensor": true,
    "fractie": "Glas"
  },
  {
    "nr": "922",
    "lat": "53.000204",
    "lng": "6.548704",
    "vulgraad": 0,
    "adres": "Nobellaan 922",
    "fractieKleur": "SKYBLUE",
    "heeftSensor": true,
    "fractie": "Glas"
  },
  {
    "nr": "918",
    "lat": "53.001598",
    "lng": "6.525636",
    "vulgraad": 0,
    "adres": "de Hoogspanning 918",
    "fractieKleur": "SKYBLUE",
    "heeftSensor": true,
    "fractie": "Glas"
  },
  {
    "nr": "920",
    "lat": "52.999488",
    "lng": "6.513209",
    "vulgraad": 0,
    "adres": "Zuiderpoort 920",
    "fractieKleur": "SKYBLUE",
    "heeftSensor": true,
    "fractie": "Glas"
  },
  {
    "nr": "915",
    "lat": "52.995393",
    "lng": "6.565285",
    "vulgraad": 0,
    "adres": "Menning 915",
    "fractieKleur": "SKYBLUE",
    "heeftSensor": true,
    "fractie": "Glas"
  },
  {
    "nr": "914",
    "lat": "52.99732",
    "lng": "6.56606",
    "vulgraad": 0,
    "adres": "Kloekhorststraat 914",
    "fractieKleur": "SKYBLUE",
    "heeftSensor": true,
    "fractie": "Glas"
  },
  {
    "nr": "916",
    "lat": "52.995393",
    "lng": "6.565285",
    "vulgraad": 0,
    "adres": "Menning 916",
    "fractieKleur": "SKYBLUE",
    "heeftSensor": true,
    "fractie": "Glas"
  },
  {
    "nr": "219",
    "lat": "52.9977508",
    "lng": "6.5620807",
    "vulgraad": 65,
    "adres": "Korenmolen  219",
    "fractieKleur": "GREY",
    "heeftSensor": true,
    "fractie": "Restafval"
  },
  {
    "nr": "140",
    "lat": "52.9939762",
    "lng": "6.57264466",
    "vulgraad": 29,
    "adres": "Koekoekstraat  140",
    "fractieKleur": "GREY",
    "heeftSensor": true,
    "fractie": "Restafval"
  },
  {
    "nr": "932",
    "lat": "52.976545",
    "lng": "6.56995",
    "vulgraad": 0,
    "adres": "Middenweg 932",
    "fractieKleur": "SKYBLUE",
    "heeftSensor": true,
    "fractie": "Glas"
  },
  {
    "nr": "251",
    "lat": "52.98533491",
    "lng": "6.57142282",
    "vulgraad": 44,
    "adres": "Lindelaan 251",
    "fractieKleur": "GREY",
    "heeftSensor": true,
    "fractie": "Restafval"
  },
  {
    "nr": "301",
    "lat": "52.994258",
    "lng": "6.56166877",
    "vulgraad": 5,
    "adres": "Kruisstraat  301",
    "fractieKleur": "GREY",
    "heeftSensor": true,
    "fractie": "Restafval"
  },
  {
    "nr": "933",
    "lat": "52.985636",
    "lng": "6.581271",
    "vulgraad": 0,
    "adres": "Speenkruidstraat 28, 9404HM Assen",
    "fractieKleur": "SKYBLUE",
    "heeftSensor": true,
    "fractie": "Glas"
  },
  {
    "nr": "247",
    "lat": "53.01703299",
    "lng": "6.58608183",
    "vulgraad": 53,
    "adres": "Kleuvenstee \" Zuid \" 247",
    "fractieKleur": "GREY",
    "heeftSensor": true,
    "fractie": "Restafval"
  },
  {
    "nr": "248",
    "lat": "53.01812465",
    "lng": "6.58542779",
    "vulgraad": 85,
    "adres": "Kleuvenstee \" Noord \" 248",
    "fractieKleur": "GREY",
    "heeftSensor": true,
    "fractie": "Restafval"
  },
  {
    "nr": "930",
    "lat": "52.988429",
    "lng": "6.579866",
    "vulgraad": 0,
    "adres": "Bremstraat 930",
    "fractieKleur": "SKYBLUE",
    "heeftSensor": true,
    "fractie": "Glas"
  },
  {
    "nr": "228",
    "lat": "52.99749572",
    "lng": "6.56559029",
    "vulgraad": 20,
    "adres": "Kloekhorststraat  228",
    "fractieKleur": "GREY",
    "heeftSensor": true,
    "fractie": "Restafval"
  },
  {
    "nr": "103",
    "lat": "53.01740265",
    "lng": "6.5844059",
    "vulgraad": 14,
    "adres": "Kleuvenstee 103",
    "fractieKleur": "GREY",
    "heeftSensor": true,
    "fractie": "Restafval"
  },
  {
    "nr": "931",
    "lat": "52.986914",
    "lng": "6.56968",
    "vulgraad": 0,
    "adres": "Anemoonstraat 931",
    "fractieKleur": "SKYBLUE",
    "heeftSensor": true,
    "fractie": "Glas"
  },
  {
    "nr": "215",
    "lat": "52.99665942",
    "lng": "6.55736982",
    "vulgraad": 4,
    "adres": "Kanaalstraat  215",
    "fractieKleur": "GREY",
    "heeftSensor": true,
    "fractie": "Restafval"
  },
  {
    "nr": "928",
    "lat": "52.996677",
    "lng": "6.53902",
    "vulgraad": 0,
    "adres": "Stroom 928",
    "fractieKleur": "SKYBLUE",
    "heeftSensor": true,
    "fractie": "Glas"
  },
  {
    "nr": "232A",
    "lat": "52.995117",
    "lng": "6.56716734",
    "vulgraad": 26,
    "adres": "Javastraat 232 A ",
    "fractieKleur": "GREY",
    "heeftSensor": true,
    "fractie": "Restafval"
  },
  {
    "nr": "148",
    "lat": "53.00428211",
    "lng": "6.54984951",
    "vulgraad": 73,
    "adres": "Klenckestraat  148",
    "fractieKleur": "GREY",
    "heeftSensor": true,
    "fractie": "Restafval"
  },
  {
    "nr": "216",
    "lat": "52.99701406",
    "lng": "6.55654626",
    "vulgraad": 65,
    "adres": "Kanaalstraat  216",
    "fractieKleur": "GREY",
    "heeftSensor": true,
    "fractie": "Restafval"
  },
  {
    "nr": "929",
    "lat": "52.988429",
    "lng": "6.579866",
    "vulgraad": 0,
    "adres": "Bremstraat 929",
    "fractieKleur": "SKYBLUE",
    "heeftSensor": true,
    "fractie": "Glas"
  },
  {
    "nr": "926",
    "lat": "52.986631",
    "lng": "6.531406",
    "vulgraad": 0,
    "adres": "Westergoo 926",
    "fractieKleur": "SKYBLUE",
    "heeftSensor": true,
    "fractie": "Glas"
  },
  {
    "nr": "232",
    "lat": "52.99534191",
    "lng": "6.56707882",
    "vulgraad": 31,
    "adres": "Javastraat  232",
    "fractieKleur": "GREY",
    "heeftSensor": true,
    "fractie": "Restafval"
  },
  {
    "nr": "927",
    "lat": "52.996677",
    "lng": "6.53902",
    "vulgraad": 0,
    "adres": "Stroom 927",
    "fractieKleur": "SKYBLUE",
    "heeftSensor": true,
    "fractie": "Glas"
  },
  {
    "nr": "307",
    "lat": "52.99662071",
    "lng": "6.56728647",
    "vulgraad": 70,
    "adres": "Jan Fabriciusstraat  307",
    "fractieKleur": "GREY",
    "heeftSensor": true,
    "fractie": "Restafval"
  },
  {
    "nr": "319",
    "lat": "52.99719978",
    "lng": "6.56433164",
    "vulgraad": 75,
    "adres": "Groningerstraat  Jongman 319",
    "fractieKleur": "GREY",
    "heeftSensor": true,
    "fractie": "Restafval"
  },
  {
    "nr": "186",
    "lat": "52.99873585",
    "lng": "6.53518105",
    "vulgraad": 35,
    "adres": "Grift  186",
    "fractieKleur": "GREY",
    "heeftSensor": true,
    "fractie": "Restafval"
  },
  {
    "nr": "337",
    "lat": "52.97503781",
    "lng": "6.56831577",
    "vulgraad": 19,
    "adres": "Hendrik van Boeijenlaan",
    "fractieKleur": "GREY",
    "heeftSensor": true,
    "fractie": "Restafval"
  },
  {
    "nr": "320",
    "lat": "52.99802251",
    "lng": "6.56527586",
    "vulgraad": 5,
    "adres": "Groningerstraat 320",
    "fractieKleur": "GREY",
    "heeftSensor": true,
    "fractie": "Restafval"
  },
  {
    "nr": "184",
    "lat": "53.00028551",
    "lng": "6.53700257",
    "vulgraad": 37,
    "adres": "Gouwe  184",
    "fractieKleur": "GREY",
    "heeftSensor": true,
    "fractie": "Restafval"
  },
  {
    "nr": "183",
    "lat": "53.00094992",
    "lng": "6.53816695",
    "vulgraad": 40,
    "adres": "Gouwe  183",
    "fractieKleur": "GREY",
    "heeftSensor": true,
    "fractie": "Restafval"
  },
  {
    "nr": "108",
    "lat": "53.018529",
    "lng": "6.561727",
    "vulgraad": 30,
    "adres": "Gravenlanden 35, 9407JP Assen",
    "fractieKleur": "GREY",
    "heeftSensor": true,
    "fractie": "Restafval"
  },
  {
    "nr": "185",
    "lat": "52.99962749",
    "lng": "6.53599842",
    "vulgraad": 30,
    "adres": "Gouwe  185",
    "fractieKleur": "GREY",
    "heeftSensor": true,
    "fractie": "Restafval"
  },
  {
    "nr": "133",
    "lat": "52.9945061",
    "lng": "6.57987307",
    "vulgraad": 73,
    "adres": "Gerard Doustraat  133",
    "fractieKleur": "GREY",
    "heeftSensor": true,
    "fractie": "Restafval"
  },
  {
    "nr": "240",
    "lat": "52.99522969",
    "lng": "6.56317489",
    "vulgraad": 8,
    "adres": "Gedempte Singel \"Iwema\" 240",
    "fractieKleur": "GREY",
    "heeftSensor": true,
    "fractie": "Restafval"
  },
  {
    "nr": "294",
    "lat": "53.00028472",
    "lng": "6.51205801",
    "vulgraad": 56,
    "adres": "Gildestraat  294",
    "fractieKleur": "GREY",
    "heeftSensor": true,
    "fractie": "Restafval"
  },
  {
    "nr": "134",
    "lat": "52.99450713",
    "lng": "6.58071318",
    "vulgraad": 15,
    "adres": "Gerard Doustraat 134",
    "fractieKleur": "GREY",
    "heeftSensor": true,
    "fractie": "Restafval"
  },
  {
    "nr": "246",
    "lat": "53.00326068",
    "lng": "6.5154405",
    "vulgraad": 38,
    "adres": "Frambozenhof 246",
    "fractieKleur": "GREY",
    "heeftSensor": true,
    "fractie": "Restafval"
  },
  {
    "nr": "189",
    "lat": "52.9981515",
    "lng": "6.53862356",
    "vulgraad": 6,
    "adres": "Epe  189",
    "fractieKleur": "GREY",
    "heeftSensor": true,
    "fractie": "Restafval"
  },
  {
    "nr": "241",
    "lat": "52.99524788",
    "lng": "6.56196505",
    "vulgraad": 28,
    "adres": "Gedempte Singel \"Fluitketel\" 241",
    "fractieKleur": "GREY",
    "heeftSensor": true,
    "fractie": "Restafval"
  },
  {
    "nr": "101",
    "lat": "53.02462657",
    "lng": "6.5960402",
    "vulgraad": 33,
    "adres": "Fuutmesschen 101",
    "fractieKleur": "GREY",
    "heeftSensor": true,
    "fractie": "Restafval"
  },
  {
    "nr": "272",
    "lat": "52.9966459",
    "lng": "6.57720425",
    "vulgraad": 53,
    "adres": "Het Palet  272",
    "fractieKleur": "GREY",
    "heeftSensor": true,
    "fractie": "Restafval"
  },
  {
    "nr": "275",
    "lat": "52.99985318",
    "lng": "6.56350209",
    "vulgraad": 62,
    "adres": "Het Kanaal / van Houtenstraat 275",
    "fractieKleur": "GREY",
    "heeftSensor": true,
    "fractie": "Restafval"
  },
  {
    "nr": "111",
    "lat": "52.98401704",
    "lng": "6.53446125",
    "vulgraad": 21,
    "adres": "Het Sticht  111",
    "fractieKleur": "GREY",
    "heeftSensor": true,
    "fractie": "Restafval"
  },
  {
    "nr": "276",
    "lat": "52.99848937",
    "lng": "6.56010971",
    "vulgraad": 59,
    "adres": "Het  Kanaal  276",
    "fractieKleur": "GREY",
    "heeftSensor": true,
    "fractie": "Restafval"
  },
  {
    "nr": "271",
    "lat": "52.997383",
    "lng": "6.574055",
    "vulgraad": 5,
    "adres": "Herman Broodstraat  271",
    "fractieKleur": "GREY",
    "heeftSensor": true,
    "fractie": "Restafval"
  },
  {
    "nr": "230",
    "lat": "52.99866495",
    "lng": "6.56101931",
    "vulgraad": 26,
    "adres": "Het Kanaal  230",
    "fractieKleur": "GREY",
    "heeftSensor": true,
    "fractie": "Restafval"
  },
  {
    "nr": "221",
    "lat": "52.99896037",
    "lng": "6.56473828",
    "vulgraad": 89,
    "adres": "Het Kanaal  221",
    "fractieKleur": "GREY",
    "heeftSensor": true,
    "fractie": "Restafval"
  },
  {
    "nr": "223",
    "lat": "52.99782935",
    "lng": "6.56358509",
    "vulgraad": 4,
    "adres": "Omloop  223",
    "fractieKleur": "GREY",
    "heeftSensor": true,
    "fractie": "Restafval"
  },
  {
    "nr": "146",
    "lat": "53.00595866",
    "lng": "6.55446608",
    "vulgraad": 37,
    "adres": "Oldengaardestraat 146",
    "fractieKleur": "GREY",
    "heeftSensor": true,
    "fractie": "Restafval"
  },
  {
    "nr": "147",
    "lat": "53.00578406",
    "lng": "6.55599134",
    "vulgraad": 59,
    "adres": "Oosterbroekstraat  147",
    "fractieKleur": "GREY",
    "heeftSensor": true,
    "fractie": "Restafval"
  },
  {
    "nr": "224",
    "lat": "52.99795123",
    "lng": "6.56408056",
    "vulgraad": 3,
    "adres": "Omloop  224",
    "fractieKleur": "GREY",
    "heeftSensor": true,
    "fractie": "Restafval"
  },
  {
    "nr": "197",
    "lat": "52.99734531",
    "lng": "6.55472803",
    "vulgraad": 42,
    "adres": "Nobellaan  197",
    "fractieKleur": "GREY",
    "heeftSensor": true,
    "fractie": "Restafval"
  },
  {
    "nr": "169",
    "lat": "52.99781624",
    "lng": "6.55410015",
    "vulgraad": 0,
    "adres": "Nobellaan  169",
    "fractieKleur": "GREY",
    "heeftSensor": true,
    "fractie": "Restafval"
  },
  {
    "nr": "145",
    "lat": "53.0063033",
    "lng": "6.5530939",
    "vulgraad": 50,
    "adres": "Oldengaardestraat  145",
    "fractieKleur": "GREY",
    "heeftSensor": true,
    "fractie": "Restafval"
  },
  {
    "nr": "292",
    "lat": "53.00795909",
    "lng": "6.55951557",
    "vulgraad": 26,
    "adres": "Obrechtlaan  292",
    "fractieKleur": "GREY",
    "heeftSensor": true,
    "fractie": "Restafval"
  },
  {
    "nr": "122",
    "lat": "52.98758863",
    "lng": "6.57999741",
    "vulgraad": 48,
    "adres": "Dotterbloemstraat 122",
    "fractieKleur": "GREY",
    "heeftSensor": true,
    "fractie": "Restafval"
  },
  {
    "nr": "121",
    "lat": "52.98728619",
    "lng": "6.58053126",
    "vulgraad": 14,
    "adres": "Dotterbloemstraat 121",
    "fractieKleur": "GREY",
    "heeftSensor": true,
    "fractie": "Restafval"
  },
  {
    "nr": "305",
    "lat": "52.9984376",
    "lng": "6.56893456",
    "vulgraad": 10,
    "adres": "Nijlandstraat 305",
    "fractieKleur": "GREY",
    "heeftSensor": true,
    "fractie": "Restafval"
  },
  {
    "nr": "312",
    "lat": "52.99838026",
    "lng": "6.56757242",
    "vulgraad": 71,
    "adres": "Nijlandstraat (Brandweer) 312",
    "fractieKleur": "GREY",
    "heeftSensor": true,
    "fractie": "Restafval"
  },
  {
    "nr": "256",
    "lat": "52.9946353",
    "lng": "6.56657548",
    "vulgraad": 56,
    "adres": "Doevekamp (gemeentehuis) 256",
    "fractieKleur": "GREY",
    "heeftSensor": true,
    "fractie": "Restafval"
  },
  {
    "nr": "242L",
    "lat": "52.99689657",
    "lng": "6.55912522",
    "vulgraad": 15,
    "adres": "Ceresplein \"Triade\"242",
    "fractieKleur": "GREY",
    "heeftSensor": true,
    "fractie": "Restafval"
  },
  {
    "nr": null,
    "lat": "53.0076368",
    "lng": "6.5951327",
    "vulgraad": 0,
    "adres": "Van Doornestraat 11, 9403AN  Assen",
    "fractieKleur": null,
    "heeftSensor": false,
    "fractie": "Onbekend"
  },
  {
    "nr": "120",
    "lat": "52.98697427",
    "lng": "6.58082244",
    "vulgraad": 35,
    "adres": "Dotterbloemstraat 120",
    "fractieKleur": "GREY",
    "heeftSensor": true,
    "fractie": "Restafval"
  },
  {
    "nr": "231",
    "lat": "52.9956358",
    "lng": "6.56613365",
    "vulgraad": 73,
    "adres": "Doevenkamp  231",
    "fractieKleur": "GREY",
    "heeftSensor": true,
    "fractie": "Restafval"
  },
  {
    "nr": "195",
    "lat": "52.998122",
    "lng": "6.551789",
    "vulgraad": 5,
    "adres": "Einsteinlaan  195",
    "fractieKleur": "GREY",
    "heeftSensor": true,
    "fractie": "Restafval"
  },
  {
    "nr": "194",
    "lat": "52.99843309",
    "lng": "6.55122756",
    "vulgraad": 40,
    "adres": "Einsteinlaan  194",
    "fractieKleur": "GREY",
    "heeftSensor": true,
    "fractie": "Restafval"
  },
  {
    "nr": "188",
    "lat": "52.99891117",
    "lng": "6.53991882",
    "vulgraad": 5,
    "adres": "Ellen  188",
    "fractieKleur": "GREY",
    "heeftSensor": true,
    "fractie": "Restafval"
  },
  {
    "nr": "198",
    "lat": "52.99696732",
    "lng": "6.55334046",
    "vulgraad": 49,
    "adres": "Einsteinlaan  198",
    "fractieKleur": "GREY",
    "heeftSensor": true,
    "fractie": "Restafval"
  },
  {
    "nr": "165",
    "lat": "52.99911618",
    "lng": "6.55817531",
    "vulgraad": 46,
    "adres": "DR Schaepmanstraat  165",
    "fractieKleur": "GREY",
    "heeftSensor": true,
    "fractie": "Restafval"
  },
  {
    "nr": "161",
    "lat": "53.00159803",
    "lng": "6.56033659",
    "vulgraad": 2,
    "adres": "DR A Kuyperstraat  161",
    "fractieKleur": "GREY",
    "heeftSensor": true,
    "fractie": "Restafval"
  },
  {
    "nr": "187",
    "lat": "52.99969882",
    "lng": "6.54120854",
    "vulgraad": 33,
    "adres": "Eem  187",
    "fractieKleur": "GREY",
    "heeftSensor": true,
    "fractie": "Restafval"
  },
  {
    "nr": "150",
    "lat": "53.00367468",
    "lng": "6.55581787",
    "vulgraad": 0,
    "adres": "Echtenstraat  150",
    "fractieKleur": "GREY",
    "heeftSensor": true,
    "fractie": "Restafval"
  },
  {
    "nr": "158",
    "lat": "53.00191023",
    "lng": "6.56271709",
    "vulgraad": 45,
    "adres": "DR A Kuyperstraat  158",
    "fractieKleur": "GREY",
    "heeftSensor": true,
    "fractie": "Restafval"
  },
  {
    "nr": "123",
    "lat": "52.98792711",
    "lng": "6.57913549",
    "vulgraad": 50,
    "adres": "Dotterbloemstraat 123",
    "fractieKleur": "GREY",
    "heeftSensor": true,
    "fractie": "Restafval"
  },
  {
    "nr": "160",
    "lat": "53.00170054",
    "lng": "6.56116023",
    "vulgraad": 36,
    "adres": "DR A Kuyperstraat  160",
    "fractieKleur": "GREY",
    "heeftSensor": true,
    "fractie": "Restafval"
  },
  {
    "nr": "159",
    "lat": "53.00180377",
    "lng": "6.56194271",
    "vulgraad": 73,
    "adres": "DR A Kuyperstraat  159",
    "fractieKleur": "GREY",
    "heeftSensor": true,
    "fractie": "Restafval"
  },
  {
    "nr": "173",
    "lat": "53.00529452",
    "lng": "6.54696104",
    "vulgraad": 28,
    "adres": "Oostermoer  173",
    "fractieKleur": "GREY",
    "heeftSensor": true,
    "fractie": "Restafval"
  },
  {
    "nr": "205",
    "lat": "52.99153228",
    "lng": "6.56379597",
    "vulgraad": 48,
    "adres": "Oosterhoutstraat  205",
    "fractieKleur": "GREY",
    "heeftSensor": true,
    "fractie": "Restafval"
  },
  {
    "nr": "173A",
    "lat": "53.00490353",
    "lng": "6.54757661",
    "vulgraad": 43,
    "adres": "Oostermoer 173 A",
    "fractieKleur": "GREY",
    "heeftSensor": true,
    "fractie": "Restafval"
  },
  {
    "nr": "174",
    "lat": "53.00458274",
    "lng": "6.54810903",
    "vulgraad": 73,
    "adres": "Oostermoer  174",
    "fractieKleur": "GREY",
    "heeftSensor": true,
    "fractie": "Restafval"
  },
  {
    "nr": "313PAP",
    "lat": "52.99856252",
    "lng": "6.54787468",
    "vulgraad": 71,
    "adres": "Van Heuveng \"Wijde Blik\"  193",
    "fractieKleur": "BLUE",
    "heeftSensor": true,
    "fractie": "Papier"
  },
  {
    "nr": "287PAP",
    "lat": "52.99985318",
    "lng": "6.56350209",
    "vulgraad": 36,
    "adres": "Het Kanaal / van Houtenstraat 275",
    "fractieKleur": "BLUE",
    "heeftSensor": true,
    "fractie": "Papier"
  },
  {
    "nr": "326PAP",
    "lat": "52.99190689",
    "lng": "6.58007738",
    "vulgraad": 97,
    "adres": "Roerdompstraat PAP 326",
    "fractieKleur": "BLUE",
    "heeftSensor": true,
    "fractie": "Papier"
  },
  {
    "nr": "295PAP",
    "lat": "52.99968333",
    "lng": "6.51599583",
    "vulgraad": 62,
    "adres": "Traverse  295",
    "fractieKleur": "BLUE",
    "heeftSensor": true,
    "fractie": "Papier"
  },
  {
    "nr": "331PAP",
    "lat": "52.98544375",
    "lng": "6.52708054",
    "vulgraad": 0,
    "adres": "Schakelhof 1,  Assen",
    "fractieKleur": "BLUE",
    "heeftSensor": true,
    "fractie": "Papier"
  },
  {
    "nr": "330PAP",
    "lat": "52.99545689",
    "lng": "6.57517925",
    "vulgraad": 46,
    "adres": "Rembrandtlaan 330",
    "fractieKleur": "BLUE",
    "heeftSensor": true,
    "fractie": "Papier"
  },
  {
    "nr": "136PAP",
    "lat": "52.9930882",
    "lng": "6.57572401",
    "vulgraad": 79,
    "adres": "Oosterpark  136",
    "fractieKleur": "BLUE",
    "heeftSensor": true,
    "fractie": "Papier"
  },
  {
    "nr": "139PAP",
    "lat": "52.9925387",
    "lng": "6.57545556",
    "vulgraad": 59,
    "adres": "Oosterpark  139",
    "fractieKleur": "BLUE",
    "heeftSensor": true,
    "fractie": "Papier"
  },
  {
    "nr": "168PAP",
    "lat": "52.99834134",
    "lng": "6.55466553",
    "vulgraad": 10,
    "adres": "Nansenstraat 33D, 9402AJ Assen",
    "fractieKleur": "BLUE",
    "heeftSensor": true,
    "fractie": "Papier"
  },
  {
    "nr": "148PAP",
    "lat": "53.00428211",
    "lng": "6.54984951",
    "vulgraad": 40,
    "adres": "Klenckestraat  148",
    "fractieKleur": "BLUE",
    "heeftSensor": true,
    "fractie": "Papier"
  },
  {
    "nr": "335PAP",
    "lat": "52.98770282",
    "lng": "6.53692688",
    "vulgraad": 59,
    "adres": "Nicolaas Beetslaan",
    "fractieKleur": "BLUE",
    "heeftSensor": true,
    "fractie": "Papier"
  },
  {
    "nr": "291PAP",
    "lat": "52.98885582",
    "lng": "6.58149284",
    "vulgraad": 63,
    "adres": "Vredeveldseweg  291",
    "fractieKleur": "BLUE",
    "heeftSensor": true,
    "fractie": "Papier"
  },
  {
    "nr": "212PAP",
    "lat": "52.99582025",
    "lng": "6.55796751",
    "vulgraad": 75,
    "adres": "Mercuriusplein 212",
    "fractieKleur": "BLUE",
    "heeftSensor": true,
    "fractie": "Papier"
  },
  {
    "nr": "106PAP",
    "lat": "53.01631268",
    "lng": "6.5594119",
    "vulgraad": 47,
    "adres": "Walakker 106",
    "fractieKleur": "BLUE",
    "heeftSensor": true,
    "fractie": "Papier"
  },
  {
    "nr": "268PAP",
    "lat": "53.0009918",
    "lng": "6.56907785",
    "vulgraad": 84,
    "adres": "Vondellaan  268",
    "fractieKleur": "BLUE",
    "heeftSensor": true,
    "fractie": "Papier"
  },
  {
    "nr": "332PAP",
    "lat": "52.98970909",
    "lng": "6.58006839",
    "vulgraad": 29,
    "adres": "Vredeveldseweg",
    "fractieKleur": "BLUE",
    "heeftSensor": true,
    "fractie": "Papier"
  },
  {
    "nr": "266PAP",
    "lat": "53.00197242",
    "lng": "6.56752009",
    "vulgraad": 51,
    "adres": "Vondellaan  266",
    "fractieKleur": "BLUE",
    "heeftSensor": true,
    "fractie": "Papier"
  },
  {
    "nr": "336PAP",
    "lat": "52.99822014",
    "lng": "6.56993358",
    "vulgraad": 78,
    "adres": "Veemarktstraat",
    "fractieKleur": "BLUE",
    "heeftSensor": true,
    "fractie": "Papier"
  },
  {
    "nr": "267PAP",
    "lat": "53.00178407",
    "lng": "6.56892308",
    "vulgraad": 60,
    "adres": "Vondellaan  267",
    "fractieKleur": "BLUE",
    "heeftSensor": true,
    "fractie": "Papier"
  },
  {
    "nr": "319PAP",
    "lat": "52.99719978",
    "lng": "6.56433164",
    "vulgraad": 0,
    "adres": "Groningerstraat  Jongman 319",
    "fractieKleur": "BLUE",
    "heeftSensor": true,
    "fractie": "Papier"
  },
  {
    "nr": "320PAP",
    "lat": "52.99802251",
    "lng": "6.56527586",
    "vulgraad": 44,
    "adres": "Groningerstraat 320",
    "fractieKleur": "BLUE",
    "heeftSensor": true,
    "fractie": "Papier"
  },
  {
    "nr": "147PAP",
    "lat": "53.00578406",
    "lng": "6.55599134",
    "vulgraad": 6,
    "adres": "Oosterbroekstraat  147",
    "fractieKleur": "BLUE",
    "heeftSensor": true,
    "fractie": "Papier"
  },
  {
    "nr": "146PAP",
    "lat": "53.00595866",
    "lng": "6.55446608",
    "vulgraad": 8,
    "adres": "Oldengaardestraat 146",
    "fractieKleur": "BLUE",
    "heeftSensor": true,
    "fractie": "Papier"
  },
  {
    "nr": "294PAP",
    "lat": "53.00028472",
    "lng": "6.51205801",
    "vulgraad": 42,
    "adres": "Gildestraat  294",
    "fractieKleur": "BLUE",
    "heeftSensor": true,
    "fractie": "Papier"
  },
  {
    "nr": "145PAP",
    "lat": "53.0063033",
    "lng": "6.5530939",
    "vulgraad": 12,
    "adres": "Oldengaardestraat  145",
    "fractieKleur": "BLUE",
    "heeftSensor": true,
    "fractie": "Papier"
  },
  {
    "nr": "143PAP",
    "lat": "53.0111542",
    "lng": "6.56480185",
    "vulgraad": 0,
    "adres": "Smetanalaan 143 ",
    "fractieKleur": "BLUE",
    "heeftSensor": true,
    "fractie": "Papier"
  },
  {
    "nr": "144PAP",
    "lat": "53.01135598",
    "lng": "6.56346857",
    "vulgraad": 0,
    "adres": "Smetanalaan 144 ",
    "fractieKleur": "BLUE",
    "heeftSensor": true,
    "fractie": "Papier"
  },
  {
    "nr": "293PAP",
    "lat": "53.00122941",
    "lng": "6.51391385",
    "vulgraad": 38,
    "adres": "Schoolstraat  293",
    "fractieKleur": "BLUE",
    "heeftSensor": true,
    "fractie": "Papier"
  },
  {
    "nr": "142PAP",
    "lat": "53.01095994",
    "lng": "6.56613962",
    "vulgraad": 49,
    "adres": "Smetanalaan 142 ",
    "fractieKleur": "BLUE",
    "heeftSensor": true,
    "fractie": "Papier"
  },
  {
    "nr": "221PAP",
    "lat": "52.99896037",
    "lng": "6.56473828",
    "vulgraad": 31,
    "adres": "Het Kanaal  221",
    "fractieKleur": "BLUE",
    "heeftSensor": true,
    "fractie": "Papier"
  },
  {
    "nr": "325PAP",
    "lat": "53.02129797",
    "lng": "6.57340679",
    "vulgraad": 14,
    "adres": "Hoekbree 325",
    "fractieKleur": "BLUE",
    "heeftSensor": true,
    "fractie": "Papier"
  },
  {
    "nr": "337PAP",
    "lat": "52.97503781",
    "lng": "6.56831577",
    "vulgraad": 96,
    "adres": "Hendrik van Boeijenlaan",
    "fractieKleur": "BLUE",
    "heeftSensor": true,
    "fractie": "Papier"
  },
  {
    "nr": "235PAP",
    "lat": "52.99866495",
    "lng": "6.56101931",
    "vulgraad": 32,
    "adres": "Het Kanaal  230",
    "fractieKleur": "BLUE",
    "heeftSensor": true,
    "fractie": "Papier"
  },
  {
    "nr": "902",
    "lat": "53.018095",
    "lng": "6.586347",
    "vulgraad": 0,
    "adres": "Kleuvenstee 902",
    "fractieKleur": "SKYBLUE",
    "heeftSensor": true,
    "fractie": "Glas"
  },
  {
    "nr": "903",
    "lat": "53.016025",
    "lng": "6.561083",
    "vulgraad": 0,
    "adres": "Scharmbarg 903",
    "fractieKleur": "SKYBLUE",
    "heeftSensor": true,
    "fractie": "Glas"
  },
  {
    "nr": "904",
    "lat": "53.016025",
    "lng": "6.561083",
    "vulgraad": 0,
    "adres": "Scharmbarg 904",
    "fractieKleur": "SKYBLUE",
    "heeftSensor": false,
    "fractie": "Glas"
  },
  {
    "nr": "912",
    "lat": "52.99823529",
    "lng": "6.56991836",
    "vulgraad": 0,
    "adres": "van Riebeeckstraat 912",
    "fractieKleur": "SKYBLUE",
    "heeftSensor": false,
    "fractie": "Glas"
  },
  {
    "nr": "917",
    "lat": "53.001598",
    "lng": "6.525636",
    "vulgraad": 0,
    "adres": "De Hoogspanning 917",
    "fractieKleur": "SKYBLUE",
    "heeftSensor": false,
    "fractie": "Glas"
  },
  {
    "nr": "901",
    "lat": "53.018095",
    "lng": "6.586347",
    "vulgraad": 0,
    "adres": "Kleuvenstee 901",
    "fractieKleur": "SKYBLUE",
    "heeftSensor": false,
    "fractie": "Glas"
  },
  {
    "nr": "153PAP",
    "lat": "53.00045205",
    "lng": "6.55284965",
    "vulgraad": 0,
    "adres": "Thorbeckelaan  153",
    "fractieKleur": "BLUE",
    "heeftSensor": true,
    "fractie": "Papier"
  },
  {
    "nr": "155PAP",
    "lat": "53.00007781",
    "lng": "6.55263574",
    "vulgraad": 0,
    "adres": "Thorbeckelaan  155",
    "fractieKleur": "BLUE",
    "heeftSensor": true,
    "fractie": "Papier"
  },
  {
    "nr": "911",
    "lat": "52.99823206",
    "lng": "6.56990762",
    "vulgraad": 0,
    "adres": "van Riebeeckstraat 911",
    "fractieKleur": "SKYBLUE",
    "heeftSensor": true,
    "fractie": "Glas"
  },
  {
    "nr": "913",
    "lat": "52.99732",
    "lng": "6.56606",
    "vulgraad": 0,
    "adres": "Kloekhorststraat 913",
    "fractieKleur": "SKYBLUE",
    "heeftSensor": true,
    "fractie": "Glas"
  },
  {
    "nr": "909",
    "lat": "53.002429",
    "lng": "6.561282",
    "vulgraad": 0,
    "adres": "Thorbeckelaan 909",
    "fractieKleur": "SKYBLUE",
    "heeftSensor": true,
    "fractie": "Glas"
  },
  {
    "nr": "910",
    "lat": "53.002429",
    "lng": "6.561282",
    "vulgraad": 0,
    "adres": "Thorbeckelaan 910",
    "fractieKleur": "SKYBLUE",
    "heeftSensor": true,
    "fractie": "Glas"
  },
  {
    "nr": "907",
    "lat": "53.00961887",
    "lng": "6.56365936",
    "vulgraad": 0,
    "adres": "Paganinilaan 907",
    "fractieKleur": "SKYBLUE",
    "heeftSensor": true,
    "fractie": "Glas"
  },
  {
    "nr": "908",
    "lat": "53.00958336",
    "lng": "6.56369423",
    "vulgraad": 0,
    "adres": "Paganinilaan 908",
    "fractieKleur": "SKYBLUE",
    "heeftSensor": true,
    "fractie": "Glas"
  },
  {
    "nr": "905",
    "lat": "53.006482",
    "lng": "6.539962",
    "vulgraad": 0,
    "adres": "Maasstraat 905",
    "fractieKleur": "SKYBLUE",
    "heeftSensor": true,
    "fractie": "Glas"
  },
  {
    "nr": "906",
    "lat": "53.00643681",
    "lng": "6.53991908",
    "vulgraad": 0,
    "adres": "Maasstraat 906",
    "fractieKleur": "SKYBLUE",
    "heeftSensor": true,
    "fractie": "Glas"
  },
  {
    "nr": "191PAP",
    "lat": "52.99672659",
    "lng": "6.53899537",
    "vulgraad": 29,
    "adres": "Zwin  191",
    "fractieKleur": "BLUE",
    "heeftSensor": true,
    "fractie": "Papier"
  },
  {
    "nr": "129PAP",
    "lat": "52.98700679",
    "lng": "6.57036596",
    "vulgraad": 0,
    "adres": "Anemoonstraat  129",
    "fractieKleur": "BLUE",
    "heeftSensor": true,
    "fractie": "Papier"
  },
  {
    "nr": "102PAP",
    "lat": "53.01731",
    "lng": "6.583194",
    "vulgraad": 0,
    "adres": "Beunheugte 62, 9403HW Assen",
    "fractieKleur": "BLUE",
    "heeftSensor": true,
    "fractie": "Papier"
  },
  {
    "nr": "280PAP",
    "lat": "52.99981541",
    "lng": "6.55192775",
    "vulgraad": 0,
    "adres": "Thorbeckelaan   280",
    "fractieKleur": "BLUE",
    "heeftSensor": true,
    "fractie": "Papier"
  },
  {
    "nr": "190PAP",
    "lat": "52.99769039",
    "lng": "6.53909507",
    "vulgraad": 67,
    "adres": "Stroom 190",
    "fractieKleur": "BLUE",
    "heeftSensor": true,
    "fractie": "Papier"
  },
  {
    "nr": "315PAP",
    "lat": "53.01566728",
    "lng": "6.56422842",
    "vulgraad": 56,
    "adres": "Zuringes 315",
    "fractieKleur": "BLUE",
    "heeftSensor": true,
    "fractie": "Papier"
  },
  {
    "nr": "296PAP",
    "lat": "52.99914893",
    "lng": "6.51353481",
    "vulgraad": 0,
    "adres": "Zuidergracht  296",
    "fractieKleur": "BLUE",
    "heeftSensor": true,
    "fractie": "Papier"
  },
  {
    "nr": "114PAP",
    "lat": "52.98463495",
    "lng": "6.58014436",
    "vulgraad": 37,
    "adres": "Speenkruidstraat 353, 9404HP Assen",
    "fractieKleur": "BLUE",
    "heeftSensor": true,
    "fractie": "Papier"
  },
  {
    "nr": "113PAP",
    "lat": "52.98528229",
    "lng": "6.58115996",
    "vulgraad": 57,
    "adres": "Speenkruidstraat 46,  Assen",
    "fractieKleur": "BLUE",
    "heeftSensor": true,
    "fractie": "Papier"
  },
  {
    "nr": "177PAP",
    "lat": "53.00153642",
    "lng": "6.54840505",
    "vulgraad": 90,
    "adres": "Stadhouderslaan  177",
    "fractieKleur": "BLUE",
    "heeftSensor": true,
    "fractie": "Papier"
  },
  {
    "nr": "329PAP",
    "lat": "52.99222018",
    "lng": "6.57666897",
    "vulgraad": 33,
    "adres": "Sperwerstraat 329",
    "fractieKleur": "BLUE",
    "heeftSensor": true,
    "fractie": "Papier"
  },
  {
    "nr": "323PAP",
    "lat": "52.99642339",
    "lng": "6.54023182",
    "vulgraad": 53,
    "adres": "Slingeborgh 323",
    "fractieKleur": "BLUE",
    "heeftSensor": true,
    "fractie": "Papier"
  },
  {
    "nr": "341PAP",
    "lat": "53.00094244",
    "lng": "6.5413928",
    "vulgraad": 14,
    "adres": "Beek",
    "fractieKleur": "BLUE",
    "heeftSensor": true,
    "fractie": "Papier"
  },
  {
    "nr": "112PAP",
    "lat": "52.98587947",
    "lng": "6.58219512",
    "vulgraad": 73,
    "adres": "Speenkruidstraat 161, 9404HG Assen",
    "fractieKleur": "BLUE",
    "heeftSensor": true,
    "fractie": "Papier"
  },
  {
    "nr": "342PAP",
    "lat": "0",
    "lng": "0",
    "vulgraad": 0,
    "adres": "Groen van Prinsterenlaan 30,  Assen",
    "fractieKleur": "BLUE",
    "heeftSensor": true,
    "fractie": "Papier"
  },
  {
    "nr": "127PAP",
    "lat": "52.98520223",
    "lng": "6.56973769",
    "vulgraad": 19,
    "adres": "Berkenstraat  127",
    "fractieKleur": "BLUE",
    "heeftSensor": true,
    "fractie": "Papier"
  },
  {
    "nr": "154PAP",
    "lat": "53.00010703",
    "lng": "6.55196996",
    "vulgraad": 18,
    "adres": "Thorbeckelaan  154",
    "fractieKleur": "BLUE",
    "heeftSensor": true,
    "fractie": "Papier"
  },
  {
    "nr": "213PAP",
    "lat": "52.99557046",
    "lng": "6.55778595",
    "vulgraad": 64,
    "adres": "Weiersstraat  213",
    "fractieKleur": "BLUE",
    "heeftSensor": true,
    "fractie": "Papier"
  },
  {
    "nr": "290PAP",
    "lat": "52.98746073",
    "lng": "6.5287459",
    "vulgraad": 84,
    "adres": "Witterhoofdweg  290",
    "fractieKleur": "BLUE",
    "heeftSensor": true,
    "fractie": "Papier"
  },
  {
    "nr": "349PAP",
    "lat": "52.998269",
    "lng": "6.555539",
    "vulgraad": 0,
    "adres": "Nansenstraat 0, 9402AJ Assen",
    "fractieKleur": "BLUE",
    "heeftSensor": true,
    "fractie": "Papier"
  },
  {
    "nr": "350PAP",
    "lat": "0",
    "lng": "0",
    "vulgraad": 93,
    "adres": "Prins Hendrikstraat",
    "fractieKleur": "BLUE",
    "heeftSensor": true,
    "fractie": "Papier"
  },
  {
    "nr": "347PAP",
    "lat": "53.00268892",
    "lng": "6.5316081",
    "vulgraad": 4,
    "adres": "Mien Ruysweg 36, 9408KB Assen",
    "fractieKleur": "BLUE",
    "heeftSensor": true,
    "fractie": "Papier"
  },
  {
    "nr": "346PAP",
    "lat": "53.00274058",
    "lng": "6.53180659",
    "vulgraad": 40,
    "adres": "Mien Ruysweg 36, 9408KB Assen",
    "fractieKleur": "BLUE",
    "heeftSensor": true,
    "fractie": "Papier"
  },
  {
    "nr": "744PMD",
    "lat": "53.01135598",
    "lng": "6.56346857",
    "vulgraad": 17,
    "adres": "Smetanalaan 144 ",
    "fractieKleur": "ORANGE",
    "heeftSensor": true,
    "fractie": "PMD"
  },
  {
    "nr": "736PMD",
    "lat": "52.9930882",
    "lng": "6.57572401",
    "vulgraad": 23,
    "adres": "Oosterpark  136",
    "fractieKleur": "ORANGE",
    "heeftSensor": true,
    "fractie": "PMD"
  },
  {
    "nr": "742PMD",
    "lat": "53.01095994",
    "lng": "6.56613962",
    "vulgraad": 20,
    "adres": "Smetanalaan 142 ",
    "fractieKleur": "ORANGE",
    "heeftSensor": true,
    "fractie": "PMD"
  },
  {
    "nr": "743PMD",
    "lat": "53.0111542",
    "lng": "6.56480185",
    "vulgraad": 20,
    "adres": "Smetanalaan 143 ",
    "fractieKleur": "ORANGE",
    "heeftSensor": true,
    "fractie": "PMD"
  },
  {
    "nr": "700PMD",
    "lat": "53.0001736",
    "lng": "6.54891172",
    "vulgraad": 2,
    "adres": "Nobellaan",
    "fractieKleur": "ORANGE",
    "heeftSensor": true,
    "fractie": "PMD"
  },
  {
    "nr": "737PMD",
    "lat": "52.97503781",
    "lng": "6.56831577",
    "vulgraad": 52,
    "adres": "Hendrik van Boeijenlaan",
    "fractieKleur": "ORANGE",
    "heeftSensor": true,
    "fractie": "PMD"
  },
  {
    "nr": "701PMD",
    "lat": "53.01604431",
    "lng": "6.56108572",
    "vulgraad": 15,
    "adres": "Esakkersweg",
    "fractieKleur": "ORANGE",
    "heeftSensor": true,
    "fractie": "PMD"
  },
  {
    "nr": "735PMD",
    "lat": "52.98770282",
    "lng": "6.53692688",
    "vulgraad": 27,
    "adres": "Nicolaas Beetslaan",
    "fractieKleur": "ORANGE",
    "heeftSensor": true,
    "fractie": "PMD"
  },
  {
    "nr": "705PMD",
    "lat": "52.9984376",
    "lng": "6.56893456",
    "vulgraad": 94,
    "adres": "Nijlandstraat 305",
    "fractieKleur": "ORANGE",
    "heeftSensor": true,
    "fractie": "PMD"
  },
  {
    "nr": "792PMD",
    "lat": "53.00795909",
    "lng": "6.55951557",
    "vulgraad": 16,
    "adres": "Obrechtlaan  292",
    "fractieKleur": "ORANGE",
    "heeftSensor": true,
    "fractie": "PMD"
  },
  {
    "nr": "732PMD",
    "lat": "52.98970909",
    "lng": "6.58006839",
    "vulgraad": 69,
    "adres": "Vredeveldseweg",
    "fractieKleur": "ORANGE",
    "heeftSensor": true,
    "fractie": "PMD"
  },
  {
    "nr": "703PMD",
    "lat": "52.99582025",
    "lng": "6.55796751",
    "vulgraad": 5,
    "adres": "Mercuriusplein 212",
    "fractieKleur": "ORANGE",
    "heeftSensor": true,
    "fractie": "PMD"
  },
  {
    "nr": "767PMD",
    "lat": "53.00178407",
    "lng": "6.56892308",
    "vulgraad": 61,
    "adres": "Vondellaan  267",
    "fractieKleur": "ORANGE",
    "heeftSensor": true,
    "fractie": "PMD"
  },
  {
    "nr": "768PMD",
    "lat": "53.0009918",
    "lng": "6.56907785",
    "vulgraad": 19,
    "adres": "Vondellaan  268",
    "fractieKleur": "ORANGE",
    "heeftSensor": true,
    "fractie": "PMD"
  },
  {
    "nr": "793PMD",
    "lat": "52.99856252",
    "lng": "6.54787468",
    "vulgraad": 36,
    "adres": "Van Heuveng \"Wijde Blik\"  193",
    "fractieKleur": "ORANGE",
    "heeftSensor": true,
    "fractie": "PMD"
  },
  {
    "nr": "766PMD",
    "lat": "53.00197242",
    "lng": "6.56752009",
    "vulgraad": 13,
    "adres": "Vondellaan  266",
    "fractieKleur": "ORANGE",
    "heeftSensor": true,
    "fractie": "PMD"
  },
  {
    "nr": "722PMD",
    "lat": "52.99813748",
    "lng": "6.56279122",
    "vulgraad": 25,
    "adres": "Oude molenstraat  222",
    "fractieKleur": "ORANGE",
    "heeftSensor": true,
    "fractie": "PMD"
  },
  {
    "nr": "739PMD",
    "lat": "52.9925387",
    "lng": "6.57545556",
    "vulgraad": 25,
    "adres": "Oosterpark  139",
    "fractieKleur": "ORANGE",
    "heeftSensor": true,
    "fractie": "PMD"
  },
  {
    "nr": "730PMD",
    "lat": "52.99546544",
    "lng": "6.57517956",
    "vulgraad": 56,
    "adres": "Rembrandtlaan",
    "fractieKleur": "ORANGE",
    "heeftSensor": true,
    "fractie": "PMD"
  },
  {
    "nr": "105BIO",
    "lat": "53.016106",
    "lng": "6.562003",
    "vulgraad": 0,
    "adres": "Winkelakker 105",
    "fractieKleur": "GREEN",
    "heeftSensor": true,
    "fractie": "GFT"
  },
  {
    "nr": "115BIO",
    "lat": "52.98486591",
    "lng": "6.5798311",
    "vulgraad": 0,
    "adres": "Zilverschoonstraat 115",
    "fractieKleur": "GREEN",
    "heeftSensor": true,
    "fractie": "GFT"
  },
  {
    "nr": "191BIO",
    "lat": "52.99672659",
    "lng": "6.53899537",
    "vulgraad": 0,
    "adres": "Zwin  191",
    "fractieKleur": "GREEN",
    "heeftSensor": true,
    "fractie": "GFT"
  },
  {
    "nr": "213BIO",
    "lat": "52.99557046",
    "lng": "6.55778595",
    "vulgraad": 0,
    "adres": "Weiersstraat  213",
    "fractieKleur": "GREEN",
    "heeftSensor": true,
    "fractie": "GFT"
  },
  {
    "nr": "347BIO",
    "lat": "53.00268892",
    "lng": "6.5316081",
    "vulgraad": 0,
    "adres": "Mien Ruysweg 36, 9408KB Assen",
    "fractieKleur": "GREEN",
    "heeftSensor": true,
    "fractie": "GFT"
  },
  {
    "nr": "315BIO",
    "lat": "53.01566728",
    "lng": "6.56422842",
    "vulgraad": 0,
    "adres": "Zuringes 315",
    "fractieKleur": "GREEN",
    "heeftSensor": true,
    "fractie": "GFT"
  },
  {
    "nr": "237BIO",
    "lat": "53.00658749",
    "lng": "6.55943424",
    "vulgraad": 0,
    "adres": "Zwartwatersweg   237",
    "fractieKleur": "GREEN",
    "heeftSensor": true,
    "fractie": "GFT"
  },
  {
    "nr": "498BIO",
    "lat": "52.99067598",
    "lng": "6.566075",
    "vulgraad": 0,
    "adres": "Zuidhaege 46, 9401XS Assen",
    "fractieKleur": "GREEN",
    "heeftSensor": true,
    "fractie": "GFT"
  },
  {
    "nr": "499BIO",
    "lat": "52.99109576",
    "lng": "6.56550787",
    "vulgraad": 0,
    "adres": "Zuidhaege 28, 9401NZ Assen",
    "fractieKleur": "GREEN",
    "heeftSensor": true,
    "fractie": "GFT"
  },
  {
    "nr": "751PMD",
    "lat": "53.00325954",
    "lng": "6.56002355",
    "vulgraad": 41,
    "adres": "C van der Lindenstr  151 ",
    "fractieKleur": "ORANGE",
    "heeftSensor": true,
    "fractie": "PMD"
  },
  {
    "nr": "733PMD",
    "lat": "52.98758839",
    "lng": "6.57777471",
    "vulgraad": 82,
    "adres": "Brunelstraat",
    "fractieKleur": "ORANGE",
    "heeftSensor": true,
    "fractie": "PMD"
  },
  {
    "nr": "702PMD",
    "lat": "53.0015583",
    "lng": "6.52554029",
    "vulgraad": 0,
    "adres": "De Hoogspanning",
    "fractieKleur": "ORANGE",
    "heeftSensor": true,
    "fractie": "PMD"
  },
  {
    "nr": "728PMD",
    "lat": "52.99622013",
    "lng": "6.56932551",
    "vulgraad": 0,
    "adres": "Abel Tasmanplein 127, 9401AZ Assen",
    "fractieKleur": "ORANGE",
    "heeftSensor": true,
    "fractie": "PMD"
  },
  {
    "nr": "734PMD",
    "lat": "52.99902566",
    "lng": "6.5600726",
    "vulgraad": 35,
    "adres": "Bernardstraat",
    "fractieKleur": "ORANGE",
    "heeftSensor": true,
    "fractie": "PMD"
  },
  {
    "nr": "118BIO",
    "lat": "52.98585742",
    "lng": "6.57776535",
    "vulgraad": 0,
    "adres": "Zilverschoonstraat 118",
    "fractieKleur": "GREEN",
    "heeftSensor": true,
    "fractie": "GFT"
  },
  {
    "nr": "706PMD",
    "lat": "52.99660456",
    "lng": "6.56727843",
    "vulgraad": 32,
    "adres": "Jan Fabriciusstraat  306",
    "fractieKleur": "ORANGE",
    "heeftSensor": true,
    "fractie": "PMD"
  },
  {
    "nr": "116BIO",
    "lat": "52.98529471",
    "lng": "6.57882137",
    "vulgraad": 0,
    "adres": "Zilverschoonstraat 116",
    "fractieKleur": "GREEN",
    "heeftSensor": true,
    "fractie": "GFT"
  },
  {
    "nr": "117BIO",
    "lat": "52.98530365",
    "lng": "6.5787781",
    "vulgraad": 0,
    "adres": "Zilverschoonstraat 117",
    "fractieKleur": "GREEN",
    "heeftSensor": true,
    "fractie": "GFT"
  },
  {
    "nr": "109PAP",
    "lat": "53.00778837",
    "lng": "6.54120639",
    "vulgraad": 0,
    "adres": "Amstelstraat 109, 9406TC Assen",
    "fractieKleur": "BLUE",
    "heeftSensor": true,
    "fractie": "Papier"
  },
  {
    "nr": "310PAP",
    "lat": "53.00830747",
    "lng": "6.54190788",
    "vulgraad": 5,
    "adres": "Amstelstraat  310",
    "fractieKleur": "BLUE",
    "heeftSensor": true,
    "fractie": "Papier"
  },
  {
    "nr": "328PAP",
    "lat": "52.99622013",
    "lng": "6.56932551",
    "vulgraad": 13,
    "adres": "Abel Tasmanplein 127, 9401AZ Assen",
    "fractieKleur": "BLUE",
    "heeftSensor": true,
    "fractie": "Papier"
  },
  {
    "nr": "307PAP",
    "lat": "52.99662071",
    "lng": "6.56728647",
    "vulgraad": 100,
    "adres": "Jan Fabriciusstraat  307",
    "fractieKleur": "BLUE",
    "heeftSensor": true,
    "fractie": "Papier"
  },
  {
    "nr": "710PMD",
    "lat": "52.98544375",
    "lng": "6.52708054",
    "vulgraad": 0,
    "adres": "Schakelhof 1,  Assen",
    "fractieKleur": "ORANGE",
    "heeftSensor": false,
    "fractie": "PMD"
  },
  {
    "nr": "754PMD",
    "lat": "53.00010703",
    "lng": "6.55196996",
    "vulgraad": 0,
    "adres": "Thorbeckelaan  154",
    "fractieKleur": "ORANGE",
    "heeftSensor": true,
    "fractie": "PMD"
  },
  {
    "nr": "755PMD",
    "lat": "53.00007781",
    "lng": "6.55263574",
    "vulgraad": 0,
    "adres": "Thorbeckelaan  155",
    "fractieKleur": "ORANGE",
    "heeftSensor": true,
    "fractie": "PMD"
  },
  {
    "nr": "746PMD",
    "lat": "53.00274058",
    "lng": "6.53180659",
    "vulgraad": 3,
    "adres": "Mien Ruysweg 36, 9408KB Assen",
    "fractieKleur": "ORANGE",
    "heeftSensor": true,
    "fractie": "PMD"
  },
  {
    "nr": "750PMD",
    "lat": "0",
    "lng": "0",
    "vulgraad": 20,
    "adres": "Prins Hendrikstraat",
    "fractieKleur": "ORANGE",
    "heeftSensor": true,
    "fractie": "PMD"
  },
  {
    "nr": "242PAP",
    "lat": "52.99689657",
    "lng": "6.55912522",
    "vulgraad": 73,
    "adres": "Ceresplein \"Triade\"242",
    "fractieKleur": "BLUE",
    "heeftSensor": true,
    "fractie": "Papier"
  },
  {
    "nr": "305PAP",
    "lat": "52.9984376",
    "lng": "6.56893456",
    "vulgraad": 79,
    "adres": "Nijlandstraat 305",
    "fractieKleur": "BLUE",
    "heeftSensor": true,
    "fractie": "Papier"
  },
  {
    "nr": "333PAP",
    "lat": "52.98758839",
    "lng": "6.57777471",
    "vulgraad": 64,
    "adres": "Brunelstraat",
    "fractieKleur": "BLUE",
    "heeftSensor": true,
    "fractie": "Papier"
  },
  {
    "nr": "322PAP",
    "lat": "53.01614443",
    "lng": "6.55707708",
    "vulgraad": 84,
    "adres": "Beuzeveen 322",
    "fractieKleur": "BLUE",
    "heeftSensor": true,
    "fractie": "Papier"
  },
  {
    "nr": "151PAP",
    "lat": "53.00325954",
    "lng": "6.56002355",
    "vulgraad": 44,
    "adres": "C van der Lindenstr  151 ",
    "fractieKleur": "BLUE",
    "heeftSensor": true,
    "fractie": "Papier"
  },
  {
    "nr": "338PAP",
    "lat": "52.978072",
    "lng": "6.55753",
    "vulgraad": 43,
    "adres": "Beilerstraat",
    "fractieKleur": "BLUE",
    "heeftSensor": true,
    "fractie": "Papier"
  },
  {
    "nr": "334PAP",
    "lat": "52.99902566",
    "lng": "6.5600726",
    "vulgraad": 28,
    "adres": "Bernardstraat",
    "fractieKleur": "BLUE",
    "heeftSensor": true,
    "fractie": "Papier"
  },
  {
    "nr": "729PMD",
    "lat": "52.99222018",
    "lng": "6.57666897",
    "vulgraad": 76,
    "adres": "Sperwerstraat 329",
    "fractieKleur": "ORANGE",
    "heeftSensor": true,
    "fractie": "PMD"
  },
  {
    "nr": "777PMD",
    "lat": "53.00153642",
    "lng": "6.54840505",
    "vulgraad": 16,
    "adres": "Stadhouderslaan  177",
    "fractieKleur": "ORANGE",
    "heeftSensor": true,
    "fractie": "PMD"
  },
  {
    "nr": "713PMD",
    "lat": "52.98528229",
    "lng": "6.58115996",
    "vulgraad": 56,
    "adres": "Speenkruidstraat 46,  Assen",
    "fractieKleur": "ORANGE",
    "heeftSensor": true,
    "fractie": "PMD"
  },
  {
    "nr": "714PMD",
    "lat": "52.98463495",
    "lng": "6.58014436",
    "vulgraad": 60,
    "adres": "Speenkruidstraat 353, 9404HP Assen",
    "fractieKleur": "ORANGE",
    "heeftSensor": true,
    "fractie": "PMD"
  },
  {
    "nr": "748PMD",
    "lat": "53.00428211",
    "lng": "6.54984951",
    "vulgraad": 70,
    "adres": "Klenckestraat  148",
    "fractieKleur": "ORANGE",
    "heeftSensor": true,
    "fractie": "PMD"
  },
  {
    "nr": "712PMD",
    "lat": "52.98587947",
    "lng": "6.58219512",
    "vulgraad": 61,
    "adres": "Speenkruidstraat 161, 9404HG Assen",
    "fractieKleur": "ORANGE",
    "heeftSensor": true,
    "fractie": "PMD"
  },
  {
    "nr": "753PMD",
    "lat": "53.00045205",
    "lng": "6.55284965",
    "vulgraad": 14,
    "adres": "Thorbeckelaan  153",
    "fractieKleur": "ORANGE",
    "heeftSensor": true,
    "fractie": "PMD"
  },
  {
    "nr": "738PMD",
    "lat": "52.993087",
    "lng": "6.57394054",
    "vulgraad": 52,
    "adres": "Buizerdstraat  138",
    "fractieKleur": "ORANGE",
    "heeftSensor": true,
    "fractie": "PMD"
  },
  {
    "nr": "707PMD",
    "lat": "52.99834134",
    "lng": "6.55466553",
    "vulgraad": 58,
    "adres": "Nansenstraat 33D, 9402AJ Assen",
    "fractieKleur": "ORANGE",
    "heeftSensor": true,
    "fractie": "PMD"
  },
  {
    "nr": "723PMD",
    "lat": "52.99642339",
    "lng": "6.54023182",
    "vulgraad": 73,
    "adres": "Slingeborgh 323",
    "fractieKleur": "ORANGE",
    "heeftSensor": true,
    "fractie": "PMD"
  },
  {
    "nr": "747PMD",
    "lat": "53.00268892",
    "lng": "6.5316081",
    "vulgraad": 43,
    "adres": "Mien Ruysweg 36, 9408KB Assen",
    "fractieKleur": "ORANGE",
    "heeftSensor": true,
    "fractie": "PMD"
  },
  {
    "nr": "791PMD",
    "lat": "52.99672659",
    "lng": "6.53899537",
    "vulgraad": 80,
    "adres": "Zwin  191",
    "fractieKleur": "ORANGE",
    "heeftSensor": true,
    "fractie": "PMD"
  },
  {
    "nr": "741PMD",
    "lat": "53.00094244",
    "lng": "6.5413928",
    "vulgraad": 49,
    "adres": "Beek",
    "fractieKleur": "ORANGE",
    "heeftSensor": true,
    "fractie": "PMD"
  },
  {
    "nr": "708PMD",
    "lat": "52.98700679",
    "lng": "6.57036596",
    "vulgraad": 45,
    "adres": "Anemoonstraat  129",
    "fractieKleur": "ORANGE",
    "heeftSensor": true,
    "fractie": "PMD"
  },
  {
    "nr": "798PMD",
    "lat": "52.97611182",
    "lng": "6.56821855",
    "vulgraad": 33,
    "adres": "Middenweg  298",
    "fractieKleur": "ORANGE",
    "heeftSensor": true,
    "fractie": "PMD"
  },
  {
    "nr": "704PMD",
    "lat": "52.99950006",
    "lng": "6.51323533",
    "vulgraad": 29,
    "adres": "Zuiderkade",
    "fractieKleur": "ORANGE",
    "heeftSensor": true,
    "fractie": "PMD"
  },
  {
    "nr": "709PMD",
    "lat": "53.01731",
    "lng": "6.583194",
    "vulgraad": 58,
    "adres": "Beunheugte 62, 9403HW Assen",
    "fractieKleur": "ORANGE",
    "heeftSensor": true,
    "fractie": "PMD"
  },
  {
    "nr": "239BIO",
    "lat": "53.00653656",
    "lng": "6.55682206",
    "vulgraad": 0,
    "adres": "Mensingestraat   239",
    "fractieKleur": "GREEN",
    "heeftSensor": true,
    "fractie": "GFT"
  },
  {
    "nr": "182BIO",
    "lat": "53.00052924",
    "lng": "6.54430585",
    "vulgraad": 0,
    "adres": "Maria in Campislaan  182",
    "fractieKleur": "GREEN",
    "heeftSensor": true,
    "fractie": "GFT"
  },
  {
    "nr": "212BIO",
    "lat": "52.99582025",
    "lng": "6.55796751",
    "vulgraad": 0,
    "adres": "Mercuriusplein 212",
    "fractieKleur": "GREEN",
    "heeftSensor": true,
    "fractie": "GFT"
  },
  {
    "nr": "180BIO",
    "lat": "53.00077246",
    "lng": "6.5429181",
    "vulgraad": 0,
    "adres": "Maria in Campislaan  180",
    "fractieKleur": "GREEN",
    "heeftSensor": true,
    "fractie": "GFT"
  },
  {
    "nr": "181BIO",
    "lat": "53.00054629",
    "lng": "6.54419422",
    "vulgraad": 0,
    "adres": "Maria in Campislaan  181",
    "fractieKleur": "GREEN",
    "heeftSensor": true,
    "fractie": "GFT"
  },
  {
    "nr": "106BIO",
    "lat": "53.01631268",
    "lng": "6.5594119",
    "vulgraad": 0,
    "adres": "Walakker 106",
    "fractieKleur": "GREEN",
    "heeftSensor": true,
    "fractie": "GFT"
  },
  {
    "nr": "211BIO",
    "lat": "52.99485008",
    "lng": "6.55926216",
    "vulgraad": 0,
    "adres": "Weiersstraat   211",
    "fractieKleur": "GREEN",
    "heeftSensor": true,
    "fractie": "GFT"
  },
  {
    "nr": "125BIO",
    "lat": "52.98864019",
    "lng": "6.58186917",
    "vulgraad": 0,
    "adres": "Vredeveldseweg  125",
    "fractieKleur": "GREEN",
    "heeftSensor": true,
    "fractie": "GFT"
  },
  {
    "nr": "291BIO",
    "lat": "52.98885582",
    "lng": "6.58149284",
    "vulgraad": 0,
    "adres": "Vredeveldseweg  291",
    "fractieKleur": "GREEN",
    "heeftSensor": true,
    "fractie": "GFT"
  },
  {
    "nr": "218BIO",
    "lat": "53.06589383",
    "lng": "6.65679784",
    "vulgraad": 0,
    "adres": "Mooi Zeegse 218",
    "fractieKleur": "GREEN",
    "heeftSensor": true,
    "fractie": "GFT"
  },
  {
    "nr": "172BIO",
    "lat": "53.00726713",
    "lng": "6.55012754",
    "vulgraad": 0,
    "adres": "MR GR. v Prinsterln  172",
    "fractieKleur": "GREEN",
    "heeftSensor": true,
    "fractie": "GFT"
  },
  {
    "nr": "238BIO",
    "lat": "53.00646471",
    "lng": "6.55798263",
    "vulgraad": 0,
    "adres": "Molenstraat   238",
    "fractieKleur": "GREEN",
    "heeftSensor": true,
    "fractie": "GFT"
  },
  {
    "nr": "149BIO",
    "lat": "53.00387647",
    "lng": "6.55676198",
    "vulgraad": 0,
    "adres": "Molenstraat  149",
    "fractieKleur": "GREEN",
    "heeftSensor": true,
    "fractie": "GFT"
  },
  {
    "nr": "316BIO",
    "lat": "52.97711973",
    "lng": "6.57343297",
    "vulgraad": 0,
    "adres": "Middenweg 316",
    "fractieKleur": "GREEN",
    "heeftSensor": true,
    "fractie": "GFT"
  },
  {
    "nr": "317BIO",
    "lat": "52.97901005",
    "lng": "6.56897642",
    "vulgraad": 0,
    "adres": "Middenweg 317",
    "fractieKleur": "GREEN",
    "heeftSensor": true,
    "fractie": "GFT"
  },
  {
    "nr": "297BIO",
    "lat": "52.97652519",
    "lng": "6.56994004",
    "vulgraad": 0,
    "adres": "Middenweg  297",
    "fractieKleur": "GREEN",
    "heeftSensor": true,
    "fractie": "GFT"
  },
  {
    "nr": "298BIO",
    "lat": "52.97611182",
    "lng": "6.56821855",
    "vulgraad": 0,
    "adres": "Middenweg  298",
    "fractieKleur": "GREEN",
    "heeftSensor": true,
    "fractie": "GFT"
  },
  {
    "nr": "179BIO",
    "lat": "53.00194031",
    "lng": "6.54135629",
    "vulgraad": 0,
    "adres": "Van der Scheerstraat  179",
    "fractieKleur": "GREEN",
    "heeftSensor": true,
    "fractie": "GFT"
  },
  {
    "nr": "314BIO",
    "lat": "52.99861255",
    "lng": "6.54946687",
    "vulgraad": 0,
    "adres": "Van Heuven Goedhartlaan 314",
    "fractieKleur": "GREEN",
    "heeftSensor": true,
    "fractie": "GFT"
  },
  {
    "nr": "285BIO",
    "lat": "52.99365417",
    "lng": "6.55698378",
    "vulgraad": 0,
    "adres": "Vaart ZZ  285",
    "fractieKleur": "GREEN",
    "heeftSensor": true,
    "fractie": "GFT"
  },
  {
    "nr": "286BIO",
    "lat": "52.99371672",
    "lng": "6.5549569",
    "vulgraad": 0,
    "adres": "Vaart ZZ  286",
    "fractieKleur": "GREEN",
    "heeftSensor": true,
    "fractie": "GFT"
  },
  {
    "nr": "274BIO",
    "lat": "52.994614",
    "lng": "6.54934044",
    "vulgraad": 0,
    "adres": "Vaart N.Z.  274",
    "fractieKleur": "GREEN",
    "heeftSensor": true,
    "fractie": "GFT"
  },
  {
    "nr": "210BIO",
    "lat": "52.99404522",
    "lng": "6.55321543",
    "vulgraad": 0,
    "adres": "Vaart NZ  210",
    "fractieKleur": "GREEN",
    "heeftSensor": true,
    "fractie": "GFT"
  },
  {
    "nr": "318BIO",
    "lat": "52.99277464",
    "lng": "6.55837719",
    "vulgraad": 0,
    "adres": "Ulohof 318",
    "fractieKleur": "GREEN",
    "heeftSensor": true,
    "fractie": "GFT"
  },
  {
    "nr": "268BIO",
    "lat": "53.0009918",
    "lng": "6.56907785",
    "vulgraad": 0,
    "adres": "Vondellaan  268",
    "fractieKleur": "GREEN",
    "heeftSensor": true,
    "fractie": "GFT"
  },
  {
    "nr": "332BIO",
    "lat": "52.98970909",
    "lng": "6.58006839",
    "vulgraad": 0,
    "adres": "Vredeveldseweg",
    "fractieKleur": "GREEN",
    "heeftSensor": true,
    "fractie": "GFT"
  },
  {
    "nr": "266BIO",
    "lat": "53.00197242",
    "lng": "6.56752009",
    "vulgraad": 0,
    "adres": "Vondellaan  266",
    "fractieKleur": "GREEN",
    "heeftSensor": true,
    "fractie": "GFT"
  },
  {
    "nr": "267BIO",
    "lat": "53.00178407",
    "lng": "6.56892308",
    "vulgraad": 0,
    "adres": "Vondellaan  267",
    "fractieKleur": "GREEN",
    "heeftSensor": true,
    "fractie": "GFT"
  },
  {
    "nr": "264BIO",
    "lat": "53.00931715",
    "lng": "6.56289735",
    "vulgraad": 0,
    "adres": "Verdistraat   264",
    "fractieKleur": "GREEN",
    "heeftSensor": true,
    "fractie": "GFT"
  },
  {
    "nr": "201BIO",
    "lat": "52.98826883",
    "lng": "6.56624395",
    "vulgraad": 0,
    "adres": "Vogelkerslaan  201",
    "fractieKleur": "GREEN",
    "heeftSensor": true,
    "fractie": "GFT"
  },
  {
    "nr": "193BIO",
    "lat": "52.99856252",
    "lng": "6.54787468",
    "vulgraad": 0,
    "adres": "Van Heuveng \"Wijde Blik\"  193",
    "fractieKleur": "GREEN",
    "heeftSensor": true,
    "fractie": "GFT"
  },
  {
    "nr": "336BIO",
    "lat": "52.99822014",
    "lng": "6.56993358",
    "vulgraad": 0,
    "adres": "Veemarktstraat",
    "fractieKleur": "GREEN",
    "heeftSensor": true,
    "fractie": "GFT"
  },
  {
    "nr": "100BIO",
    "lat": "53.025587",
    "lng": "6.591153",
    "vulgraad": 0,
    "adres": "Nabij Steigermesschen  0, 9403ZS Assen",
    "fractieKleur": "GREEN",
    "heeftSensor": true,
    "fractie": "GFT"
  },
  {
    "nr": "257BIO",
    "lat": "53.01247858",
    "lng": "6.59015227",
    "vulgraad": 0,
    "adres": "Stoepveldsingel  257",
    "fractieKleur": "GREEN",
    "heeftSensor": true,
    "fractie": "GFT"
  },
  {
    "nr": "261BIO",
    "lat": "53.00478154",
    "lng": "6.5079785",
    "vulgraad": 0,
    "adres": "Stedewaarts  261",
    "fractieKleur": "GREEN",
    "heeftSensor": true,
    "fractie": "GFT"
  },
  {
    "nr": "141BIO",
    "lat": "52.99470179",
    "lng": "6.57518702",
    "vulgraad": 0,
    "adres": "Steendijk  141",
    "fractieKleur": "GREEN",
    "heeftSensor": true,
    "fractie": "GFT"
  },
  {
    "nr": "177BIO",
    "lat": "53.00153642",
    "lng": "6.54840505",
    "vulgraad": 0,
    "adres": "Stadhouderslaan  177",
    "fractieKleur": "GREEN",
    "heeftSensor": true,
    "fractie": "GFT"
  },
  {
    "nr": "311BIO",
    "lat": "53.00179567",
    "lng": "6.55185287",
    "vulgraad": 0,
    "adres": "Stadhouderslaan 311",
    "fractieKleur": "GREEN",
    "heeftSensor": true,
    "fractie": "GFT"
  },
  {
    "nr": "178BIO",
    "lat": "53.00129994",
    "lng": "6.54808241",
    "vulgraad": 0,
    "adres": "Stadhouderslaan  178",
    "fractieKleur": "GREEN",
    "heeftSensor": true,
    "fractie": "GFT"
  },
  {
    "nr": "114BIO",
    "lat": "52.98463495",
    "lng": "6.58014436",
    "vulgraad": 0,
    "adres": "Speenkruidstraat 353, 9404HP Assen",
    "fractieKleur": "GREEN",
    "heeftSensor": true,
    "fractie": "GFT"
  },
  {
    "nr": "113BIO",
    "lat": "52.98528229",
    "lng": "6.58115996",
    "vulgraad": 0,
    "adres": "Speenkruidstraat 46,  Assen",
    "fractieKleur": "GREEN",
    "heeftSensor": true,
    "fractie": "GFT"
  },
  {
    "nr": "329BIO",
    "lat": "52.99222018",
    "lng": "6.57666897",
    "vulgraad": 0,
    "adres": "Sperwerstraat 329",
    "fractieKleur": "GREEN",
    "heeftSensor": true,
    "fractie": "GFT"
  },
  {
    "nr": "135BIO",
    "lat": "52.99267952",
    "lng": "6.57706071",
    "vulgraad": 0,
    "adres": "Sperwerstraat  135",
    "fractieKleur": "GREEN",
    "heeftSensor": true,
    "fractie": "GFT"
  },
  {
    "nr": "207BIO",
    "lat": "52.99127268",
    "lng": "6.56586369",
    "vulgraad": 0,
    "adres": "Zuidhaege  207",
    "fractieKleur": "GREEN",
    "heeftSensor": true,
    "fractie": "GFT"
  },
  {
    "nr": "500BIO",
    "lat": "52.99101584",
    "lng": "6.5653234",
    "vulgraad": 0,
    "adres": "Zuidhaege 122, 9401XT Assen",
    "fractieKleur": "GREEN",
    "heeftSensor": true,
    "fractie": "GFT"
  },
  {
    "nr": "244BIO",
    "lat": "52.99659477",
    "lng": "6.51211909",
    "vulgraad": 0,
    "adres": "Tjalk  244",
    "fractieKleur": "GREEN",
    "heeftSensor": true,
    "fractie": "GFT"
  },
  {
    "nr": "296BIO",
    "lat": "52.99914893",
    "lng": "6.51353481",
    "vulgraad": 0,
    "adres": "Zuidergracht  296",
    "fractieKleur": "GREEN",
    "heeftSensor": true,
    "fractie": "GFT"
  },
  {
    "nr": "154BIO",
    "lat": "53.00010703",
    "lng": "6.55196996",
    "vulgraad": 0,
    "adres": "Thorbeckelaan  154",
    "fractieKleur": "GREEN",
    "heeftSensor": true,
    "fractie": "GFT"
  },
  {
    "nr": "155BIO",
    "lat": "53.00007781",
    "lng": "6.55263574",
    "vulgraad": 0,
    "adres": "Thorbeckelaan  155",
    "fractieKleur": "GREEN",
    "heeftSensor": true,
    "fractie": "GFT"
  },
  {
    "nr": "190BIO",
    "lat": "52.99769039",
    "lng": "6.53909507",
    "vulgraad": 0,
    "adres": "Stroom 190",
    "fractieKleur": "GREEN",
    "heeftSensor": true,
    "fractie": "GFT"
  },
  {
    "nr": "153BIO",
    "lat": "53.00045205",
    "lng": "6.55284965",
    "vulgraad": 0,
    "adres": "Thorbeckelaan  153",
    "fractieKleur": "GREEN",
    "heeftSensor": true,
    "fractie": "GFT"
  },
  {
    "nr": "280BIO",
    "lat": "52.99981541",
    "lng": "6.55192775",
    "vulgraad": 0,
    "adres": "Thorbeckelaan   280",
    "fractieKleur": "GREEN",
    "heeftSensor": true,
    "fractie": "GFT"
  },
  {
    "nr": "167BIO",
    "lat": "52.99873607",
    "lng": "6.55424511",
    "vulgraad": 0,
    "adres": "MR P J Troelstralaan  167",
    "fractieKleur": "GREEN",
    "heeftSensor": true,
    "fractie": "GFT"
  },
  {
    "nr": "162BIO",
    "lat": "53.00071645",
    "lng": "6.56112241",
    "vulgraad": 0,
    "adres": "Mr. P.J. Troelstralaan 38, 9402BJ Assen",
    "fractieKleur": "GREEN",
    "heeftSensor": true,
    "fractie": "GFT"
  },
  {
    "nr": "164BIO",
    "lat": "53.00071306",
    "lng": "6.56364982",
    "vulgraad": 0,
    "adres": "MR P J Troelstralaan  164",
    "fractieKleur": "GREEN",
    "heeftSensor": true,
    "fractie": "GFT"
  },
  {
    "nr": "144BIO",
    "lat": "53.01135598",
    "lng": "6.56346857",
    "vulgraad": 0,
    "adres": "Smetanalaan 144 ",
    "fractieKleur": "GREEN",
    "heeftSensor": true,
    "fractie": "GFT"
  },
  {
    "nr": "304BIO",
    "lat": "53.01173312",
    "lng": "6.56272399",
    "vulgraad": 0,
    "adres": "Smetanalaan 304",
    "fractieKleur": "GREEN",
    "heeftSensor": true,
    "fractie": "GFT"
  },
  {
    "nr": "112BIO",
    "lat": "52.98587947",
    "lng": "6.58219512",
    "vulgraad": 0,
    "adres": "Speenkruidstraat 161, 9404HG Assen",
    "fractieKleur": "GREEN",
    "heeftSensor": true,
    "fractie": "GFT"
  },
  {
    "nr": "142BIO",
    "lat": "53.01095994",
    "lng": "6.56613962",
    "vulgraad": 0,
    "adres": "Smetanalaan 142 ",
    "fractieKleur": "GREEN",
    "heeftSensor": true,
    "fractie": "GFT"
  },
  {
    "nr": "168BIO",
    "lat": "52.99834134",
    "lng": "6.55466553",
    "vulgraad": 0,
    "adres": "Nansenstraat 33D, 9402AJ Assen",
    "fractieKleur": "GREEN",
    "heeftSensor": true,
    "fractie": "GFT"
  },
  {
    "nr": "282BIO",
    "lat": "52.99836847",
    "lng": "6.5535411",
    "vulgraad": 0,
    "adres": "Mr. P.J. Troelstralaan 144, 9402BM Assen",
    "fractieKleur": "GREEN",
    "heeftSensor": true,
    "fractie": "GFT"
  },
  {
    "nr": "143BIO",
    "lat": "53.0111542",
    "lng": "6.56480185",
    "vulgraad": 0,
    "adres": "Smetanalaan 143 ",
    "fractieKleur": "GREEN",
    "heeftSensor": true,
    "fractie": "GFT"
  },
  {
    "nr": "335BIO",
    "lat": "52.98770282",
    "lng": "6.53692688",
    "vulgraad": 0,
    "adres": "Nicolaas Beetslaan",
    "fractieKleur": "GREEN",
    "heeftSensor": true,
    "fractie": "GFT"
  },
  {
    "nr": "163ABIO",
    "lat": "53.00098881",
    "lng": "6.56236719",
    "vulgraad": 0,
    "adres": "Mr P J Troelstraln 163 A",
    "fractieKleur": "GREEN",
    "heeftSensor": true,
    "fractie": "GFT"
  },
  {
    "nr": "199BIO",
    "lat": "52.99697262",
    "lng": "6.55245645",
    "vulgraad": 0,
    "adres": "Mr. P.J. Troelstralaan 199, 9402BG Assen",
    "fractieKleur": "GREEN",
    "heeftSensor": true,
    "fractie": "GFT"
  },
  {
    "nr": "196BIO",
    "lat": "52.99773233",
    "lng": "6.55368807",
    "vulgraad": 0,
    "adres": "Nobellaan 43, 9406AA Assen",
    "fractieKleur": "GREEN",
    "heeftSensor": true,
    "fractie": "GFT"
  },
  {
    "nr": "272BIO",
    "lat": "52.9966459",
    "lng": "6.57720425",
    "vulgraad": 0,
    "adres": "Het Palet  272",
    "fractieKleur": "GREEN",
    "heeftSensor": true,
    "fractie": "GFT"
  },
  {
    "nr": "111BIO",
    "lat": "52.98401704",
    "lng": "6.53446125",
    "vulgraad": 0,
    "adres": "Het Sticht  111",
    "fractieKleur": "GREEN",
    "heeftSensor": true,
    "fractie": "GFT"
  },
  {
    "nr": "230BIO",
    "lat": "52.99866495",
    "lng": "6.56101931",
    "vulgraad": 0,
    "adres": "Het Kanaal  230",
    "fractieKleur": "GREEN",
    "heeftSensor": true,
    "fractie": "GFT"
  },
  {
    "nr": "275BIO",
    "lat": "52.99985318",
    "lng": "6.56350209",
    "vulgraad": 0,
    "adres": "Het Kanaal / van Houtenstraat 275",
    "fractieKleur": "GREEN",
    "heeftSensor": true,
    "fractie": "GFT"
  },
  {
    "nr": "221BIO",
    "lat": "52.99896037",
    "lng": "6.56473828",
    "vulgraad": 0,
    "adres": "Het Kanaal  221",
    "fractieKleur": "GREEN",
    "heeftSensor": true,
    "fractie": "GFT"
  },
  {
    "nr": "337BIO",
    "lat": "52.97503781",
    "lng": "6.56831577",
    "vulgraad": 0,
    "adres": "Hendrik van Boeijenlaan",
    "fractieKleur": "GREEN",
    "heeftSensor": true,
    "fractie": "GFT"
  },
  {
    "nr": "276BIO",
    "lat": "52.99848937",
    "lng": "6.56010971",
    "vulgraad": 0,
    "adres": "Het  Kanaal  276",
    "fractieKleur": "GREEN",
    "heeftSensor": true,
    "fractie": "GFT"
  },
  {
    "nr": "271BIO",
    "lat": "52.997383",
    "lng": "6.574055",
    "vulgraad": 0,
    "adres": "Herman Broodstraat  271",
    "fractieKleur": "GREEN",
    "heeftSensor": true,
    "fractie": "GFT"
  },
  {
    "nr": "306BIO",
    "lat": "52.99660456",
    "lng": "6.56727843",
    "vulgraad": 0,
    "adres": "Jan Fabriciusstraat  306",
    "fractieKleur": "GREEN",
    "heeftSensor": true,
    "fractie": "GFT"
  },
  {
    "nr": "107BIO",
    "lat": "53.01671404",
    "lng": "6.5602635",
    "vulgraad": 0,
    "adres": "Scharmbarg  107",
    "fractieKleur": "GREEN",
    "heeftSensor": true,
    "fractie": "GFT"
  },
  {
    "nr": "226BIO",
    "lat": "52.99863378",
    "lng": "6.56698043",
    "vulgraad": 0,
    "adres": "Jan Fabriciusstraat  226",
    "fractieKleur": "GREEN",
    "heeftSensor": true,
    "fractie": "GFT"
  },
  {
    "nr": "227BIO",
    "lat": "52.99800773",
    "lng": "6.56714577",
    "vulgraad": 0,
    "adres": "Jan Fabriciusstraat  227",
    "fractieKleur": "GREEN",
    "heeftSensor": true,
    "fractie": "GFT"
  },
  {
    "nr": "270BIO",
    "lat": "53.00068836",
    "lng": "6.56689656",
    "vulgraad": 0,
    "adres": "Huygenstraat  270",
    "fractieKleur": "GREEN",
    "heeftSensor": true,
    "fractie": "GFT"
  },
  {
    "nr": "156BIO",
    "lat": "53.00107612",
    "lng": "6.55617957",
    "vulgraad": 0,
    "adres": "J.H.A. Schaperstraat  156",
    "fractieKleur": "GREEN",
    "heeftSensor": true,
    "fractie": "GFT"
  },
  {
    "nr": "325BIO",
    "lat": "53.02129797",
    "lng": "6.57340679",
    "vulgraad": 0,
    "adres": "Hoekbree 325",
    "fractieKleur": "GREEN",
    "heeftSensor": true,
    "fractie": "GFT"
  },
  {
    "nr": "269BIO",
    "lat": "53.00160304",
    "lng": "6.56675293",
    "vulgraad": 0,
    "adres": "Huygenstraat  269",
    "fractieKleur": "GREEN",
    "heeftSensor": true,
    "fractie": "GFT"
  },
  {
    "nr": "195BIO",
    "lat": "52.998122",
    "lng": "6.551789",
    "vulgraad": 0,
    "adres": "Einsteinlaan  195",
    "fractieKleur": "GREEN",
    "heeftSensor": true,
    "fractie": "GFT"
  },
  {
    "nr": "188BIO",
    "lat": "52.99891117",
    "lng": "6.53991882",
    "vulgraad": 0,
    "adres": "Ellen  188",
    "fractieKleur": "GREEN",
    "heeftSensor": true,
    "fractie": "GFT"
  },
  {
    "nr": "198BIO",
    "lat": "52.99696732",
    "lng": "6.55334046",
    "vulgraad": 0,
    "adres": "Einsteinlaan  198",
    "fractieKleur": "GREEN",
    "heeftSensor": true,
    "fractie": "GFT"
  },
  {
    "nr": "194BIO",
    "lat": "52.99843309",
    "lng": "6.55122756",
    "vulgraad": 0,
    "adres": "Einsteinlaan  194",
    "fractieKleur": "GREEN",
    "heeftSensor": true,
    "fractie": "GFT"
  },
  {
    "nr": "187BIO",
    "lat": "52.99969882",
    "lng": "6.54120854",
    "vulgraad": 0,
    "adres": "Eem  187",
    "fractieKleur": "GREEN",
    "heeftSensor": true,
    "fractie": "GFT"
  },
  {
    "nr": "319BIO",
    "lat": "52.99719978",
    "lng": "6.56433164",
    "vulgraad": 0,
    "adres": "Groningerstraat  Jongman 319",
    "fractieKleur": "GREEN",
    "heeftSensor": true,
    "fractie": "GFT"
  },
  {
    "nr": "320BIO",
    "lat": "52.99802251",
    "lng": "6.56527586",
    "vulgraad": 0,
    "adres": "Groningerstraat 320",
    "fractieKleur": "GREEN",
    "heeftSensor": true,
    "fractie": "GFT"
  },
  {
    "nr": "108BIO",
    "lat": "53.018529",
    "lng": "6.561727",
    "vulgraad": 0,
    "adres": "Gravenlanden 35, 9407JP Assen",
    "fractieKleur": "GREEN",
    "heeftSensor": true,
    "fractie": "GFT"
  },
  {
    "nr": "185BIO",
    "lat": "52.99962749",
    "lng": "6.53599842",
    "vulgraad": 0,
    "adres": "Gouwe  185",
    "fractieKleur": "GREEN",
    "heeftSensor": true,
    "fractie": "GFT"
  },
  {
    "nr": "186BIO",
    "lat": "52.99873585",
    "lng": "6.53518105",
    "vulgraad": 0,
    "adres": "Grift  186",
    "fractieKleur": "GREEN",
    "heeftSensor": true,
    "fractie": "GFT"
  },
  {
    "nr": "294BIO",
    "lat": "53.00028472",
    "lng": "6.51205801",
    "vulgraad": 0,
    "adres": "Gildestraat  294",
    "fractieKleur": "GREEN",
    "heeftSensor": true,
    "fractie": "GFT"
  },
  {
    "nr": "134BIO",
    "lat": "52.99450713",
    "lng": "6.58071318",
    "vulgraad": 0,
    "adres": "Gerard Doustraat 134",
    "fractieKleur": "GREEN",
    "heeftSensor": true,
    "fractie": "GFT"
  },
  {
    "nr": "184BIO",
    "lat": "53.00028551",
    "lng": "6.53700257",
    "vulgraad": 0,
    "adres": "Gouwe  184",
    "fractieKleur": "GREEN",
    "heeftSensor": true,
    "fractie": "GFT"
  },
  {
    "nr": "183BIO",
    "lat": "53.00094992",
    "lng": "6.53816695",
    "vulgraad": 0,
    "adres": "Gouwe  183",
    "fractieKleur": "GREEN",
    "heeftSensor": true,
    "fractie": "GFT"
  },
  {
    "nr": "246BIO",
    "lat": "53.00326068",
    "lng": "6.5154405",
    "vulgraad": 0,
    "adres": "Frambozenhof 246",
    "fractieKleur": "GREEN",
    "heeftSensor": true,
    "fractie": "GFT"
  },
  {
    "nr": "189BIO",
    "lat": "52.9981515",
    "lng": "6.53862356",
    "vulgraad": 0,
    "adres": "Epe  189",
    "fractieKleur": "GREEN",
    "heeftSensor": true,
    "fractie": "GFT"
  },
  {
    "nr": "133BIO",
    "lat": "52.9945061",
    "lng": "6.57987307",
    "vulgraad": 0,
    "adres": "Gerard Doustraat  133",
    "fractieKleur": "GREEN",
    "heeftSensor": true,
    "fractie": "GFT"
  },
  {
    "nr": "101BIO",
    "lat": "53.02462657",
    "lng": "6.5960402",
    "vulgraad": 0,
    "adres": "Fuutmesschen 101",
    "fractieKleur": "GREEN",
    "heeftSensor": true,
    "fractie": "GFT"
  },
  {
    "nr": "279BIO",
    "lat": "52.98975535",
    "lng": "6.58231262",
    "vulgraad": 0,
    "adres": "Platolaan   279",
    "fractieKleur": "GREEN",
    "heeftSensor": true,
    "fractie": "GFT"
  },
  {
    "nr": "204BIO",
    "lat": "52.99126061",
    "lng": "6.56252583",
    "vulgraad": 0,
    "adres": "Prinses Beatrixstraat",
    "fractieKleur": "GREEN",
    "heeftSensor": true,
    "fractie": "GFT"
  },
  {
    "nr": "259BIO",
    "lat": "53.00459621",
    "lng": "6.5154716",
    "vulgraad": 0,
    "adres": "Perzikstraat 72, 9408BS Assen",
    "fractieKleur": "GREEN",
    "heeftSensor": true,
    "fractie": "GFT"
  },
  {
    "nr": "110BIO",
    "lat": "52.99359336",
    "lng": "6.5126958",
    "vulgraad": 0,
    "adres": "Planetenlaan  110",
    "fractieKleur": "GREEN",
    "heeftSensor": true,
    "fractie": "GFT"
  },
  {
    "nr": "253BIO",
    "lat": "52.98881047",
    "lng": "6.57448083",
    "vulgraad": 0,
    "adres": "Pelikaanstraat 253",
    "fractieKleur": "GREEN",
    "heeftSensor": true,
    "fractie": "GFT"
  },
  {
    "nr": "258BIO",
    "lat": "53.0038146",
    "lng": "6.51706394",
    "vulgraad": 0,
    "adres": "Perzikstraat  258",
    "fractieKleur": "GREEN",
    "heeftSensor": true,
    "fractie": "GFT"
  },
  {
    "nr": "265BIO",
    "lat": "53.01012565",
    "lng": "6.56408875",
    "vulgraad": 0,
    "adres": "Paganinilaan  265",
    "fractieKleur": "GREEN",
    "heeftSensor": true,
    "fractie": "GFT"
  },
  {
    "nr": "202BIO",
    "lat": "52.988563",
    "lng": "6.565346",
    "vulgraad": 0,
    "adres": "Parkplein  202",
    "fractieKleur": "GREEN",
    "heeftSensor": true,
    "fractie": "GFT"
  },
  {
    "nr": "163BIO",
    "lat": "53.00067029",
    "lng": "6.56188733",
    "vulgraad": 0,
    "adres": "MR P J Troelstralaan  163",
    "fractieKleur": "GREEN",
    "heeftSensor": true,
    "fractie": "GFT"
  },
  {
    "nr": "250BIO",
    "lat": "52.98959093",
    "lng": "6.57724168",
    "vulgraad": 0,
    "adres": "Tuinstraat 250",
    "fractieKleur": "GREEN",
    "heeftSensor": true,
    "fractie": "GFT"
  },
  {
    "nr": "99BIO",
    "lat": "52.9917402",
    "lng": "6.57996988",
    "vulgraad": 0,
    "adres": "Roerdompstraat 20, 9404EH Assen",
    "fractieKleur": "GREEN",
    "heeftSensor": true,
    "fractie": "GFT"
  },
  {
    "nr": "295BIO",
    "lat": "52.99968333",
    "lng": "6.51599583",
    "vulgraad": 0,
    "adres": "Traverse  295",
    "fractieKleur": "GREEN",
    "heeftSensor": true,
    "fractie": "GFT"
  },
  {
    "nr": "252BIO",
    "lat": "52.9899483",
    "lng": "6.57452791",
    "vulgraad": 0,
    "adres": "Resedastraat 252",
    "fractieKleur": "GREEN",
    "heeftSensor": true,
    "fractie": "GFT"
  },
  {
    "nr": "262BIO",
    "lat": "53.01051466",
    "lng": "6.54547475",
    "vulgraad": 0,
    "adres": "Rijnstraat   262",
    "fractieKleur": "GREEN",
    "heeftSensor": true,
    "fractie": "GFT"
  },
  {
    "nr": "175BIO",
    "lat": "53.00206679",
    "lng": "6.54702031",
    "vulgraad": 0,
    "adres": "Rabenhauptstraat  175",
    "fractieKleur": "GREEN",
    "heeftSensor": true,
    "fractie": "GFT"
  },
  {
    "nr": "330BIO",
    "lat": "52.99545689",
    "lng": "6.57517925",
    "vulgraad": 0,
    "adres": "Rembrandtlaan 330",
    "fractieKleur": "GREEN",
    "heeftSensor": true,
    "fractie": "GFT"
  },
  {
    "nr": "132BIO",
    "lat": "52.99091023",
    "lng": "6.57128801",
    "vulgraad": 0,
    "adres": "Oosterparallelweg  132",
    "fractieKleur": "GREEN",
    "heeftSensor": true,
    "fractie": "GFT"
  },
  {
    "nr": "126BIO",
    "lat": "52.98800795",
    "lng": "6.58217552",
    "vulgraad": 0,
    "adres": "Sleutelbloemstraat  126",
    "fractieKleur": "GREEN",
    "heeftSensor": true,
    "fractie": "GFT"
  },
  {
    "nr": "200BIO",
    "lat": "52.99502322",
    "lng": "6.55118807",
    "vulgraad": 0,
    "adres": "Sluisstraat  200",
    "fractieKleur": "GREEN",
    "heeftSensor": true,
    "fractie": "GFT"
  },
  {
    "nr": "171BIO",
    "lat": "53.00687502",
    "lng": "6.5516416",
    "vulgraad": 0,
    "adres": "Schultestraat   171",
    "fractieKleur": "GREEN",
    "heeftSensor": true,
    "fractie": "GFT"
  },
  {
    "nr": "170BIO",
    "lat": "53.00773453",
    "lng": "6.55247747",
    "vulgraad": 0,
    "adres": "Schultestraat  170",
    "fractieKleur": "GREEN",
    "heeftSensor": true,
    "fractie": "GFT"
  },
  {
    "nr": "104BIO",
    "lat": "53.01675718",
    "lng": "6.58498036",
    "vulgraad": 0,
    "adres": "Schepelgoorn 104",
    "fractieKleur": "GREEN",
    "heeftSensor": true,
    "fractie": "GFT"
  },
  {
    "nr": "293BIO",
    "lat": "53.00122941",
    "lng": "6.51391385",
    "vulgraad": 0,
    "adres": "Schoolstraat  293",
    "fractieKleur": "GREEN",
    "heeftSensor": true,
    "fractie": "GFT"
  },
  {
    "nr": "254BIO",
    "lat": "52.98873405",
    "lng": "6.5677846",
    "vulgraad": 0,
    "adres": "Overcingellaan   254",
    "fractieKleur": "GREEN",
    "heeftSensor": true,
    "fractie": "GFT"
  },
  {
    "nr": "255BIO",
    "lat": "53.0131648",
    "lng": "6.58875668",
    "vulgraad": 0,
    "adres": "Overstoep  255",
    "fractieKleur": "GREEN",
    "heeftSensor": true,
    "fractie": "GFT"
  },
  {
    "nr": "234BIO",
    "lat": "52.99417331",
    "lng": "6.56837881",
    "vulgraad": 0,
    "adres": "Oranjestraat 234",
    "fractieKleur": "GREEN",
    "heeftSensor": true,
    "fractie": "GFT"
  },
  {
    "nr": "222BIO",
    "lat": "52.99813748",
    "lng": "6.56279122",
    "vulgraad": 0,
    "adres": "Oude molenstraat  222",
    "fractieKleur": "GREEN",
    "heeftSensor": true,
    "fractie": "GFT"
  },
  {
    "nr": "233BIO",
    "lat": "52.99428599",
    "lng": "6.56681791",
    "vulgraad": 0,
    "adres": "Oranjestraat 233",
    "fractieKleur": "GREEN",
    "heeftSensor": true,
    "fractie": "GFT"
  },
  {
    "nr": "234ABIO",
    "lat": "52.994049",
    "lng": "6.569276",
    "vulgraad": 0,
    "adres": "Oranjestraat 234 A",
    "fractieKleur": "GREEN",
    "heeftSensor": true,
    "fractie": "GFT"
  },
  {
    "nr": "137BIO",
    "lat": "52.99354782",
    "lng": "6.57432555",
    "vulgraad": 0,
    "adres": "Oosterpark  137",
    "fractieKleur": "GREEN",
    "heeftSensor": true,
    "fractie": "GFT"
  },
  {
    "nr": "136BIO",
    "lat": "52.9930882",
    "lng": "6.57572401",
    "vulgraad": 0,
    "adres": "Oosterpark  136",
    "fractieKleur": "GREEN",
    "heeftSensor": true,
    "fractie": "GFT"
  },
  {
    "nr": "139BIO",
    "lat": "52.9925387",
    "lng": "6.57545556",
    "vulgraad": 0,
    "adres": "Oosterpark  139",
    "fractieKleur": "GREEN",
    "heeftSensor": true,
    "fractie": "GFT"
  },
  {
    "nr": "322BIO",
    "lat": "53.01614443",
    "lng": "6.55707708",
    "vulgraad": 0,
    "adres": "Beuzeveen 322",
    "fractieKleur": "GREEN",
    "heeftSensor": true,
    "fractie": "GFT"
  },
  {
    "nr": "288BIO",
    "lat": "53.00840185",
    "lng": "6.51340429",
    "vulgraad": 0,
    "adres": "Bosroos  288",
    "fractieKleur": "GREEN",
    "heeftSensor": true,
    "fractie": "GFT"
  },
  {
    "nr": "334BIO",
    "lat": "52.99902566",
    "lng": "6.5600726",
    "vulgraad": 0,
    "adres": "Bernardstraat",
    "fractieKleur": "GREEN",
    "heeftSensor": true,
    "fractie": "GFT"
  },